city,nodeID,nodeLabel,latitude,longitude,mode,year
Brussels,11395,Schaerbeek / Schaarbeek,50.878288222587685,4.378651148214004,commuter_rail,0.0
Brussels,11396,Bruxelles-Nord / Brussel-Nord,50.86001461743663,4.361466445868103,commuter_rail,0.0
Brussels,11398,Bruxelles-Central / Brussel-Centraal,50.84599371314453,4.356571968108699,commuter_rail,0.0
Brussels,11400,Bruxelles-Midi / Brussel-Zuid,50.83571806780043,4.336159890775804,commuter_rail,0.0
Brussels,18965,De Brouckère,50.85098216693865,4.352314351467164,heavy_rail,0.0
Brussels,18965,De Brouckère,50.85098216693865,4.352314351467164,light_rail,0.0
Brussels,18965,De Brouckère,50.85098216693865,4.352314351467164,tram,0.0
Brussels,18966,Sainte-Catherine,50.852679044046376,4.347493307944546,heavy_rail,0.0
Brussels,18967,Gare Centrale,50.84611051157138,4.35840406516734,heavy_rail,0.0
Brussels,18968,Comte de Flandre,50.85521069011557,4.339494159068352,heavy_rail,0.0
Brussels,18969,Étangs Noirs,50.85707702985843,4.332195501259065,heavy_rail,0.0
Brussels,18970,Beekant,50.85346723521124,4.32296205197531,heavy_rail,0.0
Brussels,18971,Gare de l'Ouest,50.848908723603415,4.32096672810485,heavy_rail,0.0
Brussels,18972,Parc,50.84677983587282,4.362372857994019,heavy_rail,0.0
Brussels,18972,Parc,50.84677983587282,4.362372857994019,tram,0.0
Brussels,18973,Arts-Loi,50.8455405155129,4.368459990199673,heavy_rail,0.0
Brussels,18974,Maelbeek,50.84364664034135,4.377885704978894,heavy_rail,0.0
Brussels,18975,Schuman,50.842467211767485,4.383416577827802,heavy_rail,0.0
Brussels,18976,Merode,50.839254570442336,4.398949408094933,heavy_rail,0.0
Brussels,18976,Merode,50.839254570442336,4.398949408094933,tram,0.0
Brussels,18977,Montgomery,50.83742877844031,4.407618017789474,heavy_rail,0.0
Brussels,18977,Montgomery,50.83742877844031,4.407618017789474,tram,0.0
Brussels,18977,Montgomery,50.83742877844031,4.407618017789474,light_rail,0.0
Brussels,18978,Joséphine-Charlotte,50.84035204183951,4.413797651050658,heavy_rail,0.0
Brussels,18979,Gribaumont,50.84246032022671,4.418014480928548,heavy_rail,0.0
Brussels,18980,Tomberg,50.84355441307608,4.425051572850492,heavy_rail,0.0
Brussels,18981,Roodebeek,50.84752315209346,4.436055780028766,heavy_rail,0.0
Brussels,18981,Roodebeek,50.84752315209346,4.436055780028766,light_rail,0.0
Brussels,18982,Vandervelde,50.84751570980259,4.44810889162693,heavy_rail,0.0
Brussels,18983,Alma,50.849959822285655,4.453476014685748,heavy_rail,0.0
Brussels,18984,Crainhem,50.848384004466624,4.458515193952366,heavy_rail,0.0
Brussels,18985,Stockel,50.841199434592966,4.465328903414672,heavy_rail,0.0
Brussels,18985,Stockel,50.841199434592966,4.465328903414672,tram,0.0
Brussels,18986,Thieffry,50.834096926766094,4.401754657434405,heavy_rail,0.0
Brussels,18987,Pétillon,50.82992609723067,4.403272034934702,heavy_rail,0.0
Brussels,18987,Pétillon,50.82992609723067,4.403272034934702,tram,0.0
Brussels,18987,Pétillon,50.82992609723067,4.403272034934702,light_rail,0.0
Brussels,18988,Hankar,50.82179703116739,4.405566352159724,heavy_rail,0.0
Brussels,18989,Delta,50.81839932513435,4.403797270812476,heavy_rail,0.0
Brussels,18990,Beaulieu,50.815119862419095,4.409608185805268,heavy_rail,0.0
Brussels,18991,Demey,50.81373121122493,4.420296344079617,heavy_rail,0.0
Brussels,18992,Hermann-Debroux,50.81230188836928,4.427494139337226,heavy_rail,0.0
Brussels,18993,Jacques Brel,50.843967811260455,4.318336864233487,heavy_rail,0.0
Brussels,18994,Aumale,50.83952958628154,4.312179679085375,heavy_rail,0.0
Brussels,18995,Saint-Guidon,50.834969925198976,4.30534769270713,heavy_rail,0.0
Brussels,18996,Erasme,50.81524227486997,4.266995106437434,heavy_rail,0.0
Brussels,18997,Eddy Merckx,50.816660615498705,4.280824263011624,heavy_rail,0.0
Brussels,18998,CERIA,50.816240123051244,4.288979779037902,heavy_rail,0.0
Brussels,18999,La Roue,50.821629271195064,4.294247818389493,heavy_rail,0.0
Brussels,19000,Bizet,50.82520702260874,4.297587488348626,heavy_rail,0.0
Brussels,19001,Veeweyde,50.829419026693245,4.300633663582914,heavy_rail,0.0
Brussels,19002,Osseghem,50.85697068769409,4.325223675251436,heavy_rail,0.0
Brussels,19003,Simonis,50.86316070756564,4.330631806827483,heavy_rail,0.0
Brussels,19003,Simonis,50.86316070756564,4.330631806827483,tram,0.0
Brussels,19003,Simonis,50.86316070756564,4.330631806827483,light_rail,0.0
Brussels,19004,Roi Baudouin,50.89659804210518,4.328790442537809,heavy_rail,0.0
Brussels,19005,Élisabeth,50.86297,4.331389878068255,heavy_rail,0.0
Brussels,19006,Ribaucourt,50.86055301033991,4.339784022738058,heavy_rail,0.0
Brussels,19007,Yser,50.8578090441338,4.3493159311721,heavy_rail,0.0
Brussels,19008,Rogier,50.85536353382777,4.357794858094873,heavy_rail,0.0
Brussels,19008,Rogier,50.85536353382777,4.357794858094873,light_rail,0.0
Brussels,19008,Rogier,50.85536353382777,4.357794858094873,tram,0.0
Brussels,19009,Botanique,50.853108533347495,4.365629602083374,heavy_rail,0.0
Brussels,19009,Botanique,50.853108533347495,4.365629602083374,tram,0.0
Brussels,19010,Madou,50.848999392945224,4.369013532758797,heavy_rail,0.0
Brussels,19011,Trône,50.84049655981434,4.365615145257834,heavy_rail,0.0
Brussels,19012,Porte de Namur,50.8385959242419,4.361840850366178,heavy_rail,0.0
Brussels,19013,Louise,50.835793070261076,4.355025641419219,heavy_rail,0.0
Brussels,19013,Louise,50.835793070261076,4.355025641419219,light_rail,0.0
Brussels,19013,Louise,50.835793070261076,4.355025641419219,tram,0.0
Brussels,19014,Hôtel des Monnaies,50.83367098672531,4.350050399557574,heavy_rail,0.0
Brussels,19015,Porte de Hal,50.833793882987436,4.34302639979785,heavy_rail,0.0
Brussels,19015,Porte de Hal,50.833793882987436,4.34302639979785,light_rail,0.0
Brussels,19015,Porte de Hal,50.833793882987436,4.34302639979785,tram,0.0
Brussels,19016,Gare du Midi,50.83669263652251,4.337126097677101,heavy_rail,0.0
Brussels,19016,Gare du Midi,50.83669263652251,4.337126097677101,light_rail,0.0
Brussels,19016,Gare du Midi,50.83669263652251,4.337126097677101,tram,0.0
Brussels,19017,Clémenceau,50.841092551609904,4.330897672708346,heavy_rail,0.0
Brussels,19018,Delacroix,50.844655083372174,4.325162270866741,heavy_rail,0.0
Brussels,19019,Belgica,50.86760770095365,4.336028721429127,heavy_rail,0.0
Brussels,19019,Belgica,50.86760770095365,4.336028721429127,tram,0.0
Brussels,19020,Pannenhuis,50.87325137658348,4.342878301074563,heavy_rail,0.0
Brussels,19021,Bockstael,50.877564006485514,4.34728330970785,heavy_rail,0.0
Brussels,19021,Bockstael,50.877564006485514,4.34728330970785,tram,0.0
Brussels,19022,Stuyvenbergh,50.88616199079897,4.341883433446782,heavy_rail,0.0
Brussels,19022,Stuyvenbergh,50.88616199079897,4.341883433446782,tram,0.0
Brussels,19023,Houba-Brugmann,50.890114795719086,4.336875313165706,heavy_rail,0.0
Brussels,19024,Heysel,50.896739759094444,4.336540721419001,heavy_rail,0.0
Brussels,19024,Heysel,50.896739759094444,4.336540721419001,light_rail,0.0
Brussels,19025,Churchill,50.81192328617942,4.353948433084412,light_rail,0.0
Brussels,19060,Bourse,50.84826766049966,4.349587929249651,light_rail,0.0
Brussels,19060,Bourse,50.84826766049966,4.349587929249651,tram,0.0
Brussels,19061,Gare du Nord,50.85867340944492,4.35983427144933,light_rail,0.0
Brussels,19061,Gare du Nord,50.85867340944492,4.35983427144933,tram,0.0
Brussels,19091,Anneessens,50.84508151811741,4.346274527444478,light_rail,0.0
Brussels,19091,Anneessens,50.84508151811741,4.346274527444478,tram,0.0
Brussels,19092,Lemonnier,50.83977534659189,4.340644926863092,light_rail,0.0
Brussels,19092,Lemonnier,50.83977534659189,4.340644926863092,tram,0.0
Brussels,19093,Parvis de Saint-Gilles,50.83057307959865,4.344543450190969,light_rail,0.0
Brussels,19093,Parvis de Saint-Gilles,50.83057307959865,4.344543450190969,tram,0.0
Brussels,19094,Horta,50.8267805840199,4.344413462713231,light_rail,0.0
Brussels,19094,Horta,50.8267805840199,4.344413462713231,tram,0.0
Brussels,19095,Albert,50.82148356098554,4.342219790580003,light_rail,0.0
Brussels,19095,Albert,50.82148356098554,4.342219790580003,tram,0.0
Brussels,19096,Vanderkindere,50.81362881283982,4.347792479560923,light_rail,0.0
Brussels,19096,Vanderkindere,50.81362881283982,4.347792479560923,tram,0.0
Brussels,19097,Stalle,50.79567042930975,4.318063344158674,light_rail,0.0
Brussels,19098,Esplanade,50.8999207746823,4.347505211896333,light_rail,0.0
Brussels,19099,Boileau,50.83396702793303,4.405824895546743,tram,0.0
Brussels,19099,Boileau,50.83396702793303,4.405824895546743,light_rail,0.0
Brussels,19100,Diamant,50.84892771148054,4.402481213644592,tram,0.0
Brussels,19100,Diamant,50.84892771148054,4.402481213644592,light_rail,0.0
Brussels,19101,Georges Henri,50.84232620128776,4.406297661484274,tram,0.0
Brussels,19101,Georges Henri,50.84232620128776,4.406297661484274,light_rail,0.0
Brussels,19102,Arbre Ballon,50.89320082047067,4.313902094789398,light_rail,0.0
Brussels,19103,Groot-Bijgaarden,50.86760328106831,4.27356699686112,tram,0.0
Brussels,19104,De Wand,50.895570024076505,4.352129856431731,tram,0.0
Brussels,19104,De Wand,50.895570024076505,4.352129856431731,light_rail,0.0
Brussels,19105,Boondael Gare,50.80133100811362,4.393204863992867,tram,0.0
Brussels,19105,Boondael Gare,50.80133100811362,4.393204863992867,light_rail,0.0
Brussels,19106,Da Vinci,50.87648764425461,4.411469516656126,tram,0.0
Brussels,19107,Drogenbos Château,50.78532969295159,4.318477739502697,tram,0.0
Brussels,19108,Tervuren Station,50.829853312602665,4.514514627120548,tram,0.0
Brussels,19109,Ban Eik,50.8420252698385,4.503429878107198,tram,0.0
Brussels,19110,Van Haelen,50.78048950554842,4.32564765002877,tram,0.0
Brussels,19111,Stade,50.894190286140514,4.33168984911751,tram,0.0
Brussels,19112,Eurocontrol,50.87990086692008,4.4353776524446,tram,0.0
Brussels,19113,Cimetière de Jette,50.87928084295382,4.334120516213744,tram,0.0
Brussels,19114,Porte de Ninove,50.85042049478511,4.338830132378092,tram,0.0
Brussels,19115,Marius Renard,50.825029696036296,4.281181145825372,tram,0.0
Brussels,19116,Berchem Station,50.872411080222236,4.289565834498063,tram,0.0
Brussels,19117,Fort-Jaco,50.79572392894903,4.373169622616814,tram,0.0
Brussels,19118,Schaerbeek Gare,50.87792611932878,4.37971217802513,tram,0.0
Brussels,19119,Legrand,50.81562112028308,4.371949362672865,light_rail,0.0
Brussels,19119,Legrand,50.81562112028308,4.371949362672865,tram,0.0
Brussels,19120,Dieweg,50.79612475368117,4.347627202820348,tram,0.0
Brussels,19121,Bruxelles-Congrès / Brussel-Congres,50.85187548709905,4.362328970420833,commuter_rail,0.0
Brussels,19122,Bruxelles-Chapelle / Brussel-Kapellekerk,50.84126706606514,4.348558101275785,commuter_rail,0.0
Brussels,19123,Nivelles,50.60027005250416,4.335159539070844,commuter_rail,0.0
Brussels,19124,Mechelen,51.01761955206999,4.483799865713166,commuter_rail,0.0
Brussels,19125,Leuven,50.88120511271771,4.716303710340327,commuter_rail,0.0
Brussels,19126,Braine-Le-Comte,50.6053904671748,4.138731642670109,commuter_rail,0.0
Brussels,19127,Zottegem,50.86904782748519,3.814742752180166,commuter_rail,0.0
Brussels,19128,Dendermonde,51.022969930322034,4.101004646615621,commuter_rail,0.0
Brussels,19129,Aalst,50.943142069860386,4.038960062834235,commuter_rail,0.0
Brussels,19130,Vilvoorde,50.924449400032096,4.433208388294418,commuter_rail,0.0
Brussels,19131,Geraardsbergen,50.76962277130403,3.871382636862506,commuter_rail,0.0
Brussels,19132,Halle,50.73364136990003,4.240337208839577,commuter_rail,0.0
Brussels,19133,,50.67331845757661,4.568955592201945,commuter_rail,0.0
Brussels,19134,,50.67158312695042,4.618756385828959,commuter_rail,0.0
Brussels,19135,Braine-L'Alleud,50.68310067056379,4.375523220440499,commuter_rail,0.0
Brussels,19136,Forest-Est / Vorst-Oost,50.80945513269546,4.320634670131142,commuter_rail,0.0
Brussels,19137,Uccle-Stalle / Ukkel-Stalle,50.80238786105406,4.323814081905681,commuter_rail,0.0
Brussels,19139,Forest-Midi / Vorst-Zuid,50.80784513991625,4.308199030060706,commuter_rail,0.0
Brussels,19140,Bruxelles-Ouest / Brussel-West,50.850099659934415,4.321895016421934,commuter_rail,0.0
Brussels,19141,Jette,50.88103035088068,4.328679973392411,commuter_rail,0.0
Brussels,19142,,50.87948457260629,4.348538322696015,commuter_rail,0.0
Brussels,19143,Berchem-Sainte-Agathe / Sint-Agatha-Berchem,50.87243259892483,4.289527202609179,commuter_rail,0.0
Brussels,19144,Bruxelles-Schuman / Brussel-Schuman,50.84296285538662,4.380309275683629,commuter_rail,0.0
Brussels,19145,Bruxelles-Luxembourg / Brussel-Luxemburg,50.83813304180234,4.37364957774949,commuter_rail,0.0
Brussels,19146,Germoir / Mouterij,50.830138564090504,4.379482785674782,commuter_rail,0.0
Brussels,19147,Etterbeek,50.821872314174584,4.38985470233925,commuter_rail,0.0
Brussels,19148,Delta,50.81878909848922,4.403901957980878,commuter_rail,0.0
Brussels,19149,Merode,50.83823668647338,4.400168516006431,commuter_rail,0.0
Brussels,19150,Meiser,50.85496814708239,4.394352605336991,commuter_rail,0.0
Brussels,19151,Evere,50.86781322698448,4.40093654453409,commuter_rail,0.0
Brussels,19152,Bordet,50.87751805764523,4.409699924951383,commuter_rail,0.0
Brussels,19153,Haren,50.888895905452046,4.419990122051843,commuter_rail,0.0
Brussels,19154,Boondael / Boondaal,50.801840043130426,4.393524951587892,commuter_rail,0.0
Brussels,19155,Vivier d'Oie / Diesdelle,50.79598486929811,4.37231565906194,commuter_rail,0.0
Brussels,19156,Saint-Job / Sint-Job,50.794044492754665,4.361587885037437,commuter_rail,0.0
Brussels,19157,Moensberg,50.778714797797875,4.331683284699068,commuter_rail,0.0
Brussels,19158,Arcades / Arcaden,50.81098236751316,4.399244350762956,commuter_rail,0.0
Brussels,19159,Watermael / Watermaal,50.80436053570563,4.401788824122633,commuter_rail,0.0
Brussels,19160,Boitsfort / Bosvoorde,50.794478771850834,4.408112711835514,commuter_rail,0.0
Brussels,19161,Tour et Taxis / Thurn en Taxis,50.87544073374636,4.361113145448883,commuter_rail,0.0
Brussels,19162,Simonis,50.863104407138394,4.330794767692794,commuter_rail,0.0
