city,nodeID,nodeLabel,latitude,longitude,mode,year
Buenos Aires,1,Caseros,-34.63584183937791,-58.398907563412216,heavy_rail,2007.0
Buenos Aires,2,Inclán - Mezquita Al Ahmad,-34.629375244274584,-58.400954804782685,heavy_rail,2007.0
Buenos Aires,3,Humberto 1º,-34.62309560710808,-58.40230251495974,heavy_rail,2007.0
Buenos Aires,4,Venezuela,-34.615243459136884,-58.40472364779709,heavy_rail,2007.0
Buenos Aires,5,Once - 30 de Diciembre,-34.608947926167176,-58.40602879106705,heavy_rail,2007.0
Buenos Aires,6,9 de Julio,-34.6042452037712,-58.3805743445213,heavy_rail,1937.0
Buenos Aires,7,Facultad de Medicina,-34.59976580874396,-58.3977474636334,heavy_rail,1938.0
Buenos Aires,8,Tribunales - Teatro Colón,-34.60155832576589,-58.38521099509144,heavy_rail,1937.0
Buenos Aires,9,Agüero,-34.591658245322805,-58.407121515780815,heavy_rail,1938.0
Buenos Aires,10,Scalabrini Ortiz,-34.58516025860187,-58.4159294185265,heavy_rail,1938.0
Buenos Aires,11,Plaza Italia,-34.58148499445817,-58.421259393606405,heavy_rail,1938.0
Buenos Aires,12,Palermo,-34.5783453942574,-58.42583625903468,heavy_rail,1940.0
Buenos Aires,13,Retiro,-34.59125135758635,-58.37405655234333,heavy_rail,1936.0
Buenos Aires,14,Lavalle,-34.601769923798,-58.3781557831942,heavy_rail,1936.0
Buenos Aires,15,Diagonal Norte,-34.60484866538702,-58.379530966742536,heavy_rail,1934.0
Buenos Aires,16,Avenida de Mayo,-34.60897926970141,-58.380645740675675,heavy_rail,1934.0
Buenos Aires,17,Moreno,-34.612568109822035,-58.38049265197939,heavy_rail,1934.0
Buenos Aires,18,Independencia,-34.61812219475985,-58.38023565621576,heavy_rail,1934.0
Buenos Aires,19,Constitución,-34.62762304972279,-58.38144562417828,heavy_rail,1934.0
Buenos Aires,20,Carlos Pellegrini,-34.60368342151292,-58.38098262940261,heavy_rail,1931.0
Buenos Aires,21,Uruguay,-34.604093553428,-58.3872961341576,heavy_rail,1931.0
Buenos Aires,22,Callao - Maestro Alfredo Bravo,-34.6044640362732,-58.3927812622604,heavy_rail,1930.0
Buenos Aires,23,Pasteur - AMIA,-34.6046429678427,-58.3994742577363,heavy_rail,1930.0
Buenos Aires,24,Pueyrredón,-34.60458785484975,-58.4053639713074,heavy_rail,1930.0
Buenos Aires,25,Carlos Gardel,-34.6040795184799,-58.4117626011356,heavy_rail,1930.0
Buenos Aires,26,Medrano - Almagro,-34.6031649022273,-58.4209624717517,heavy_rail,1930.0
Buenos Aires,27,Ángel Gallardo,-34.6021622306381,-58.4312738604315,heavy_rail,1930.0
Buenos Aires,28,Malabia - Osvaldo Pugliese,-34.5990030261253,-58.4397151920098,heavy_rail,1930.0
Buenos Aires,29,Dorrego,-34.5917726438988,-58.4474784161237,heavy_rail,1930.0
Buenos Aires,30,Perú,-34.6085590738884,-58.3742677265724,heavy_rail,1913.0
Buenos Aires,31,Piedras,-34.60887990063994,-58.37913052422357,heavy_rail,1913.0
Buenos Aires,32,Lima,-34.60911208618442,-58.382114109618676,heavy_rail,1913.0
Buenos Aires,33,Sáenz Peña,-34.60942421278495,-58.38678661143999,heavy_rail,1913.0
Buenos Aires,34,Congreso - Presidente Dr. Raúl Alfonsín,-34.60923924206838,-58.39269648617438,heavy_rail,1913.0
Buenos Aires,35,Pasco,-34.6095511367424,-58.3970597879912,heavy_rail,1913.0
Buenos Aires,36,Alberti,-34.60984538125949,-58.40134331102894,heavy_rail,1913.0
Buenos Aires,37,Plaza Miserere,-34.60978285733478,-58.406866228152325,heavy_rail,1913.0
Buenos Aires,38,Loria,-34.61081512936413,-58.415394272652954,heavy_rail,1914.0
Buenos Aires,39,Castro Barros,-34.611795982416716,-58.42177068885028,heavy_rail,1914.0
Buenos Aires,40,Río de Janeiro,-34.615173886971334,-58.429307175292024,heavy_rail,1914.0
Buenos Aires,41,Acoyte,-34.618296951806386,-58.436399047219936,heavy_rail,1914.0
Buenos Aires,42,Primera Junta,-34.620461154762104,-58.44129530417207,heavy_rail,1914.0
Buenos Aires,43,Bolívar,-34.60915093804483,-58.37358283587924,heavy_rail,1966.0
Buenos Aires,44,Belgrano,-34.612868376947276,-58.37758032707197,heavy_rail,1966.0
Buenos Aires,45,Independencia,-34.61794387350773,-58.381499131200314,heavy_rail,1966.0
Buenos Aires,46,San José,-34.62233710024204,-58.38514233577109,heavy_rail,1944.0
Buenos Aires,47,Entre Ríos - Rodolfo Walsh,-34.62274897523455,-58.39149154742238,heavy_rail,1944.0
Buenos Aires,48,Pichincha,-34.62313275719903,-58.39710698573032,heavy_rail,1944.0
Buenos Aires,49,Jujuy,-34.623874122644786,-58.402915676561186,heavy_rail,1944.0
Buenos Aires,50,Urquiza,-34.62466022822424,-58.40940062625243,heavy_rail,1944.0
Buenos Aires,51,José María Moreno,-34.628010513068794,-58.43378456818949,heavy_rail,1973.0
Buenos Aires,52,Emilio Mitre,-34.63101220789642,-58.442126342695865,heavy_rail,1985.0
Buenos Aires,53,Bulnes,-34.58823614370169,-58.41129256123444,heavy_rail,1938.0
Buenos Aires,54,Pueyrredón,-34.59447251552672,-58.402358238710214,heavy_rail,1938.0
Buenos Aires,55,Callao,-34.599666693573035,-58.39296723663085,heavy_rail,1938.0
Buenos Aires,56,General San Martín,-34.595077361456745,-58.37780902932192,heavy_rail,1937.0
Buenos Aires,57,San Juan,-34.62212464340371,-58.379960487559025,heavy_rail,1934.0
Buenos Aires,58,Medalla Milagrosa,-34.636391078405744,-58.45028296584359,heavy_rail,1985.0
Buenos Aires,59,Avenida La Plata,-34.627012845895635,-58.426746611919526,heavy_rail,1966.0
Buenos Aires,60,Boedo,-34.62540509476673,-58.41587686572774,heavy_rail,1960.0
Buenos Aires,61,Ministro Carranza - Miguel Abuelo,-34.57517207734361,-58.43500544276454,heavy_rail,1993.0
Buenos Aires,62,Olleros,-34.570035154138765,-58.44476107537896,heavy_rail,1997.0
Buenos Aires,63,José Hernández,-34.5661386147308,-58.45222064874264,heavy_rail,1997.0
Buenos Aires,64,Juramento,-34.56224915852107,-58.45650360367086,heavy_rail,1999.0
Buenos Aires,65,Federico Lacroze,-34.5871909600777,-58.4551967582187,heavy_rail,1930.0
Buenos Aires,66,Plaza de los Virreyes - Eva Perón,-34.64317550833751,-58.461770807244925,heavy_rail,1986.0
Buenos Aires,67,Varela,-34.639979811684036,-58.45806940657237,heavy_rail,1985.0
Buenos Aires,68,Catedral,-34.60782968820334,-58.37384316302591,heavy_rail,1937.0
Buenos Aires,69,Plaza de Mayo - Casa Rosada,-34.608837083227684,-58.37095761254599,heavy_rail,1913.0
Buenos Aires,70,Congreso de Tucumán,-34.55561119750839,-58.46241999466805,heavy_rail,2000.0
Buenos Aires,71,Leandro N. Alem,-34.603006626617926,-58.36999270443014,heavy_rail,1931.0
Buenos Aires,72,Tronador - Villa Ortúzar,-34.58412996629412,-58.466256926992145,heavy_rail,2003.0
Buenos Aires,73,De los Incas -  Parque Chas,-34.5811637234293,-58.4744194794342,heavy_rail,2003.0
Buenos Aires,74,Carabobo,-34.62665983475023,-58.45668632967294,heavy_rail,2008.0
Buenos Aires,75,Puán,-34.62357712517828,-58.44862636768118,heavy_rail,2008.0
Buenos Aires,76,Corrientes,-34.60444411926467,-58.40541342857054,heavy_rail,2010.0
Buenos Aires,77,Parque Patricios,-34.638405857363765,-58.405765592328,heavy_rail,2011.0
Buenos Aires,78,Hospitales,-34.64113040578105,-58.41244935606086,heavy_rail,2013.0
Buenos Aires,79,Florida,-34.603325417623246,-58.37511808775385,heavy_rail,1931.0
Buenos Aires,80,Echeverría,-34.57778108600044,-58.481016801961594,heavy_rail,2013.0
Buenos Aires,81,Juan Manuel de Rosas - Villa Urquiza,-34.57410315127712,-58.48656820800867,heavy_rail,2013.0
Buenos Aires,82,San Pedrito,-34.6307005443756,-58.46963214873882,heavy_rail,2013.0
Buenos Aires,83,San José de Flores,-34.62907990160079,-58.463500447182426,heavy_rail,2013.0
Buenos Aires,84,Apeadero Carranza,-34.57533768131645,-58.43465290370131,heavy_rail,1987.0
Buenos Aires,85,Constitución,-34.62762305484167,-58.38145047218827,heavy_rail,1944.0
Buenos Aires,86,Apeadero Boedo,-34.62527698458847,-58.414634257178164,heavy_rail,1944.0
Buenos Aires,87,Retiro,-34.5924346730826,-58.37584346021206,heavy_rail,2019.0
Buenos Aires,88,Catalinas,-34.59680621830303,-58.37197996591011,heavy_rail,2019.0
Buenos Aires,89,Correo Central,-34.60340653062607,-58.370233681560336,heavy_rail,2019.0
Buenos Aires,90,Facultad de Derecho - Julieta Lanteri,-34.582987536452535,-58.39100569935759,heavy_rail,2018.0
Buenos Aires,91,Plaza Francia,-34.5853531778846,-58.392525467937,heavy_rail,
Buenos Aires,92,Las Heras,-34.58749217753755,-58.397241680072696,heavy_rail,2015.0
Buenos Aires,93,Santa Fe - Carlos Jáuregui,-34.594457198201546,-58.402344858393235,heavy_rail,2016.0
Buenos Aires,94,Córdoba,-34.5985047294007,-58.40374500152,heavy_rail,2015.0
Buenos Aires,6529,Antonio Devoto,-34.59559809656494,-58.510567128863414,commuter_rail,1888.0
Buenos Aires,6530,Doctor Francisco Beiró,-34.593115568471084,-58.493984308207196,commuter_rail,1888.0
Buenos Aires,6531,José Artigas,-34.590103224486505,-58.46629188813788,commuter_rail,1888.0
Buenos Aires,6532,Federico Lacroze,-34.586768592215094,-58.45565942781423,commuter_rail,1888.0
Buenos Aires,6533,Pedro Arata,-34.59247380996204,-58.47595637891693,commuter_rail,1888.0
Buenos Aires,6534,El Libertador,-34.59450525500446,-58.503369468826136,commuter_rail,1888.0
Buenos Aires,6535,Coronel Lynch,-34.597215074331686,-58.52436298731681,commuter_rail,1888.0
Buenos Aires,6541,José María Bosch,-34.58999939464494,-58.57196036762716,commuter_rail,1888.0
Buenos Aires,6542,Fernández Moreno,-34.595533368697566,-58.535436421551594,commuter_rail,1888.0
Buenos Aires,6543,Tropezón,-34.5918925837334,-58.55945582381918,commuter_rail,1888.0
Buenos Aires,6545,Lourdes,-34.593782310698984,-58.54698773176212,commuter_rail,1888.0
Buenos Aires,6546,Jorge Newbery,-34.587872803164366,-58.62060563403004,commuter_rail,1888.0
Buenos Aires,6547,Rubén Darío,-34.58755983430422,-58.629269516247525,commuter_rail,1888.0
Buenos Aires,6548,Martín Coronado,-34.58896764191965,-58.590789477521746,commuter_rail,1888.0
Buenos Aires,6549,Pablo Podestá,-34.588381035434274,-58.6070959635486,commuter_rail,1888.0
Buenos Aires,6554,Ejército de los Andes,-34.580178456696686,-58.64034798244912,commuter_rail,1914.0
Buenos Aires,6557,Juan B. de La Salle,-34.57364042512949,-58.64516260653486,commuter_rail,1914.0
Buenos Aires,6558,Sargento Barrufaldi,-34.562751576161375,-58.65979524475248,commuter_rail,1914.0
Buenos Aires,6559,Teniente Agneta,-34.54911927001957,-58.67844964415859,commuter_rail,1914.0
Buenos Aires,6560,Campo de Mayo,-34.5433403609629,-58.68639140708477,commuter_rail,1914.0
Buenos Aires,6561,Capitán Lozano,-34.55564347574446,-58.66938096603431,commuter_rail,1914.0
Buenos Aires,6564,General Lemos,-34.532927904895736,-58.70083969458822,commuter_rail,1974.0
Buenos Aires,6565,Sargento Cabral,-34.53677047141827,-58.69552742170875,commuter_rail,1974.0
Buenos Aires,8057,Belgrano C,-34.5585069028998,-58.449445306131835,commuter_rail,1862.0
Buenos Aires,8058,Lisandro de la Torre,-34.5625384966342,-58.436741448123556,commuter_rail,1916.0
Buenos Aires,8059,Tigre,-34.42351268603137,-58.58171275303463,commuter_rail,1996.0
Buenos Aires,8060,Retiro,-34.59104511969873,-58.37514493655707,commuter_rail,1915.0
Buenos Aires,8077,Devoto,-34.6026774308495,-58.51278311038524,commuter_rail,1889.0
Buenos Aires,8078,La Paternal,-34.59686124194709,-58.46673586732871,commuter_rail,1888.0
Buenos Aires,8079,Villa del Parque,-34.60140000640861,-58.49405093551699,commuter_rail,1907.0
Buenos Aires,8080,Villa Crespo,-34.59259641196882,-58.44672268220742,commuter_rail,1930.0
Buenos Aires,8081,Palermo,-34.57838593213791,-58.426390831929275,commuter_rail,1888.0
Buenos Aires,8082,Retiro,-34.58931332486238,-58.37323920705825,commuter_rail,1912.0
Buenos Aires,8083,Central de Buenos Aires,-34.606451606073286,-58.36983478102529,commuter_rail,1872.0
Buenos Aires,8084,Sáenz Peña,-34.60319649814653,-58.52794150756155,commuter_rail,1907.0
Buenos Aires,8085,Santos Lugares,-34.60368537708252,-58.540806312897075,commuter_rail,1906.0
Buenos Aires,8086,Caseros,-34.6045728428943,-58.56448722086817,commuter_rail,1888.0
Buenos Aires,8087,El Palomar,-34.60492999948794,-58.596136274200234,commuter_rail,1908.0
Buenos Aires,8088,Hurlingham,-34.59105312481854,-58.63240660631219,commuter_rail,1893.0
Buenos Aires,8089,William Morris,-34.57859668331388,-58.656340337710944,commuter_rail,1958.0
Buenos Aires,8090,Bella Vista,-34.563791402438746,-58.684692383599014,commuter_rail,1891.0
Buenos Aires,8091,Muñiz,-34.551164491818,-58.703584942236546,commuter_rail,1888.0
Buenos Aires,8092,San Miguel,-34.544056513817026,-58.713450493044704,commuter_rail,1896.0
Buenos Aires,8093,José C. Paz,-34.519063958620514,-58.75028750659715,commuter_rail,1906.0
Buenos Aires,8094,Sol y Verde,-34.50398446177167,-58.79770741745364,commuter_rail,2009.0
Buenos Aires,8095,Presidente Derqui,-34.490702592376834,-58.83935121392551,commuter_rail,1901.0
Buenos Aires,8096,Villa Astolfi,-34.47866590632948,-58.87695810306832,commuter_rail,1950.0
Buenos Aires,8097,Pilar,-34.4686892399815,-58.908258951896755,commuter_rail,1888.0
Buenos Aires,8098,Manzanares,-34.4525255185312,-59.0073171613129,commuter_rail,1895.0
Buenos Aires,8099,Manzanares,-34.45253217347174,-59.00731160531612,commuter_rail,2014.0
Buenos Aires,8100,Dr. Domingo Cabred,-34.487936331596856,-59.075895594053634,commuter_rail,1900.0
Buenos Aires,8101,Dr. Domingo Cabred,-34.487935430008555,-59.07589661536693,commuter_rail,2014.0
Buenos Aires,8142,Retiro,-34.59214951275118,-58.375440150231185,commuter_rail,1862.0
Buenos Aires,8143,Córdoba,-34.5984774465247,-58.36822799807783,tram,2007.0
Buenos Aires,8144,Corrientes,-34.60257049101301,-58.367367654132735,tram,2007.0
Buenos Aires,8145,Belgrano,-34.61145355896625,-58.36640258872376,tram,2007.0
Buenos Aires,8146,Independencia,-34.61657161518885,-58.365980971897315,tram,2007.0
Buenos Aires,8147,Tigre C,-34.42140410101263,-58.579867877897975,commuter_rail,1865.0
Buenos Aires,8148,Carupá,-34.43675309925232,-58.56840618844481,commuter_rail,1865.0
Buenos Aires,8149,San Fernando,-34.44432274555412,-58.558649583389354,commuter_rail,1864.0
Buenos Aires,8150,Virreyes,-34.45008182738517,-58.5514900930702,commuter_rail,1938.0
Buenos Aires,8151,Victoria,-34.45617535931494,-58.540918513292894,commuter_rail,1891.0
Buenos Aires,8152,Beccar,-34.46091671969247,-58.52636847649552,commuter_rail,1933.0
Buenos Aires,8153,San Isidro,-34.4716291326955,-58.513936373131216,commuter_rail,1864.0
Buenos Aires,8154,Acassuso,-34.47996638351663,-58.50386123206306,commuter_rail,1933.0
Buenos Aires,8155,Martínez,-34.48798984234243,-58.49718558136941,commuter_rail,1871.0
Buenos Aires,8156,La Lucila,-34.49750237207516,-58.48858279198403,commuter_rail,1933.0
Buenos Aires,8157,Olivos,-34.50841016031651,-58.48033959005028,commuter_rail,1864.0
Buenos Aires,8158,Vicente López,-34.524026765181205,-58.47313788936367,commuter_rail,1864.0
Buenos Aires,8159,Rivadavia,-34.53617656158421,-58.4681787929528,commuter_rail,1863.0
Buenos Aires,8160,Núñez,-34.54859200387331,-58.46268736933921,commuter_rail,1873.0
Buenos Aires,8161,Recoleta,-34.58204399136145,-58.388336932035656,commuter_rail,1862.0
Buenos Aires,8162,Palermo,-34.56628874222185,-58.42002032813106,commuter_rail,1862.0
Buenos Aires,8163,José León Suárez,-34.534179208146746,-58.576721250904924,commuter_rail,1932.0
Buenos Aires,8164,Chilavert,-34.54218999646124,-58.56692598732724,commuter_rail,1876.0
Buenos Aires,8165,Villa Ballester,-34.55103301288711,-58.55599642007677,commuter_rail,1895.0
Buenos Aires,8166,Malaver,-34.55743983707977,-58.547853459815954,commuter_rail,1876.0
Buenos Aires,8167,San Andrés,-34.56360839269826,-58.540610225411214,commuter_rail,1876.0
Buenos Aires,8168,San Martín,-34.57361661367066,-58.53170963211113,commuter_rail,1876.0
Buenos Aires,8169,Miguelete,-34.58120662806738,-58.51619833150163,commuter_rail,1876.0
Buenos Aires,8170,Pueyrredón,-34.580490368897316,-58.501744447282434,commuter_rail,1876.0
Buenos Aires,8171,General Urquiza,-34.574722388403174,-58.48783854844416,commuter_rail,1889.0
Buenos Aires,8172,Dr. Luis María Drago,-34.56839890311198,-58.478940978859015,commuter_rail,1933.0
Buenos Aires,8173,Belgrano R,-34.56782580909735,-58.46244866802037,commuter_rail,1876.0
Buenos Aires,8174,Colegiales,-34.57302795860363,-58.448181541649134,commuter_rail,1898.0
Buenos Aires,8175,Ministro Carranza,-34.57546328245298,-58.43440756845926,commuter_rail,1876.0
Buenos Aires,8176,3 de Febrero,-34.571866460022555,-58.42518865357626,commuter_rail,1915.0
Buenos Aires,8177,Coghlan,-34.565330389464116,-58.475119366528716,commuter_rail,1891.0
Buenos Aires,8178,Luis María Saavedra,-34.554113120333,-58.4870240652031,commuter_rail,1891.0
Buenos Aires,8179,Juan B. Justo,-34.54231947685408,-58.49470616069202,commuter_rail,1931.0
Buenos Aires,8180,Florida,-34.52951519115182,-58.494407341161974,commuter_rail,1891.0
Buenos Aires,8181,Dr. Cetrángolo,-34.52315546329811,-58.49413315955759,commuter_rail,1951.0
Buenos Aires,8182,Bartolomé Mitre,-34.514830374547785,-58.48906773797644,commuter_rail,1891.0
Buenos Aires,8183,Retiro,-34.59010547199625,-58.37409101496387,commuter_rail,1912.0
Buenos Aires,8322,Once de Septiembre,-34.608442109412735,-58.407458917977785,commuter_rail,1857.0
Buenos Aires,8323,Caballito,-34.619165527052246,-58.44360455181172,commuter_rail,1857.0
Buenos Aires,8324,Flores,-34.62772965886758,-58.46567577462284,commuter_rail,1857.0
Buenos Aires,8325,Floresta,-34.632537259651876,-58.48140451731811,commuter_rail,1857.0
Buenos Aires,8326,Haedo,-34.64459182334102,-58.592022161946765,commuter_rail,1886.0
Buenos Aires,8327,Morón,-34.648240798820055,-58.619411380126536,commuter_rail,1859.0
Buenos Aires,8328,Castelar,-34.65198957555494,-58.641987610903655,commuter_rail,1913.0
Buenos Aires,8329,Ituzaingó,-34.65974435830555,-58.6665748058772,commuter_rail,1872.0
Buenos Aires,8330,San Antonio de Padua,-34.665538575090004,-58.698648710397606,commuter_rail,1923.0
Buenos Aires,8331,Merlo,-34.66453449307908,-58.727771096738635,commuter_rail,1860.0
Buenos Aires,8332,Paso del Rey,-34.6582261436864,-58.762100564759,commuter_rail,1938.0
Buenos Aires,8333,Moreno,-34.65051366622797,-58.78984300424283,commuter_rail,1860.0
Buenos Aires,8334,Plaza Constitución,-34.628833068093485,-58.38062624485009,commuter_rail,1865.0
Buenos Aires,8335,Hipólito Yrigoyen,-34.65360371878185,-58.378910855852176,commuter_rail,1866.0
Buenos Aires,8336,Darío Santillán y Maximiliano Kosteki,-34.66204168487568,-58.37664905365066,commuter_rail,1865.0
Buenos Aires,8337,Lanús,-34.70764384645708,-58.390675888209074,commuter_rail,1868.0
Buenos Aires,8338,Remedios de Escalada,-34.72705391886952,-58.393636887634294,commuter_rail,1868.0
Buenos Aires,8339,Banfield,-34.74318018642511,-58.39534456856584,commuter_rail,1873.0
Buenos Aires,8340,Lomas de Zamora,-34.76104576602497,-58.39729288188354,commuter_rail,1865.0
Buenos Aires,8341,Temperley,-34.776039053499844,-58.396285198710885,commuter_rail,1871.0
Buenos Aires,8379,Dr. A. Sáenz,-34.649090491479534,-58.415899424835445,commuter_rail,1908.0
Buenos Aires,8380,Buenos Aires,-34.64438899926712,-58.3912097375047,commuter_rail,1911.0
Buenos Aires,8381,Dr. A. Sáenz (Provisoria),-34.64896727409093,-58.418136781578994,commuter_rail,2018.0
Buenos Aires,8768,Villa Rosa,-34.41651966954878,-58.8716377860887,commuter_rail,1909.0
Buenos Aires,8769,Del Viso,-34.45337720116645,-58.79680746733092,commuter_rail,1909.0
Buenos Aires,8770,Manuel Alberti,-34.4631089035375,-58.7750438124681,commuter_rail,1965.0
Buenos Aires,8771,Tortuguitas,-34.470735835202454,-58.7579569701048,commuter_rail,1947.0
Buenos Aires,8772,Tierras Altas,-34.47871145589271,-58.740085492652696,commuter_rail,1988.0
Buenos Aires,8773,Grand Bourg,-34.4853483047726,-58.72519461390844,commuter_rail,1909.0
Buenos Aires,8774,Pablo Nogués,-34.49374498593186,-58.70636287964814,commuter_rail,1909.0
Buenos Aires,8775,Los Polvorines,-34.4989166022358,-58.694772853012594,commuter_rail,1909.0
Buenos Aires,8776,Villa de Mayo,-34.50337256690854,-58.680682343997105,commuter_rail,1913.0
Buenos Aires,8777,Adolfo Sourdeaux,-34.50299514623151,-58.66644695008851,commuter_rail,1955.0
Buenos Aires,8778,Don Torcuato,-34.50269282781579,-58.641841163057094,commuter_rail,1909.0
Buenos Aires,8779,Vicealmirante Montes,-34.504130038765474,-58.62002827614231,commuter_rail,1909.0
Buenos Aires,8780,Boulogne Sur Mer,-34.508964593650965,-58.564858738663006,commuter_rail,1909.0
Buenos Aires,8781,Villa Adelina,-34.52368098206969,-58.546218863697405,commuter_rail,1909.0
Buenos Aires,8782,Carapachay,-34.52875775371225,-58.53771913032446,commuter_rail,1930.0
Buenos Aires,8783,Munro,-34.53144279892901,-58.52431437541503,commuter_rail,1912.0
Buenos Aires,8784,Florida,-34.537149035100036,-58.5130719407167,commuter_rail,1912.0
Buenos Aires,8785,Miguel Manuel Padilla,-34.54345660674089,-58.50063414167728,commuter_rail,1912.0
Buenos Aires,8786,Aristóbulo del Valle,-34.5372667144452,-58.47730777209719,commuter_rail,1912.0
Buenos Aires,8787,Ciudad Universitaria,-34.5438041563882,-58.446555035507004,commuter_rail,2015.0
Buenos Aires,8788,Saldías,-34.57547354750148,-58.3995870696196,commuter_rail,1912.0
Buenos Aires,8789,Capilla del Señor,-34.286336445375085,-59.10246403117114,commuter_rail,1892.0
Buenos Aires,8790,Los Cardales,-34.33089184965772,-58.98748688672295,commuter_rail,1903.0
Buenos Aires,8791,Zelaya,-34.370124230648045,-58.869481040501555,commuter_rail,1892.0
Buenos Aires,8792,Matheu,-34.38280507645203,-58.82981557912791,commuter_rail,1898.0
Buenos Aires,8793,Maquista Savio,-34.40684888674553,-58.772075237895976,commuter_rail,1960.0
Buenos Aires,8794,Garín,-34.4216064313159,-58.73659850841753,commuter_rail,1892.0
Buenos Aires,8795,López Camelo,-34.44685342495952,-58.67752239969795,commuter_rail,1892.0
Buenos Aires,8796,El Talar,-34.46268930950894,-58.646246262740334,commuter_rail,1892.0
Buenos Aires,8797,Dr. Schweitzer,-34.47204842465907,-58.574361311150504,commuter_rail,1892.0
Buenos Aires,8798,Diego Gaynor,-34.28693962785841,-59.225064956665705,commuter_rail,1900.0
Buenos Aires,8799,Solís,-34.2952020026337,-59.320771867411395,commuter_rail,1894.0
Buenos Aires,8800,Vagués,-34.29941317395741,-59.444319850908215,commuter_rail,1881.0
Buenos Aires,8801,San Antonio de Areco,-34.2579592680252,-59.48092187256938,commuter_rail,1894.0
Buenos Aires,8802,Duggan,-34.21372480085431,-59.63467603656201,commuter_rail,1894.0
Buenos Aires,8803,Capitán Sarmiento,-34.17545768278846,-59.79319056753937,commuter_rail,1894.0
Buenos Aires,8804,La Luisa,-34.13089061451252,-59.948462056829726,commuter_rail,1894.0
Buenos Aires,8805,Arrecifes,-34.061476639466754,-60.09989498954114,commuter_rail,1894.0
Buenos Aires,8806,Todd,-34.034256642664516,-60.15624644713476,commuter_rail,1894.0
Buenos Aires,8807,Viña,-33.99326354914837,-60.22789721104783,commuter_rail,1894.0
Buenos Aires,8808,Maguirre,-33.95435914651769,-60.2962988022461,commuter_rail,1894.0
Buenos Aires,8809,Urquiza,-33.926067033468826,-60.38995735761344,commuter_rail,1894.0
Buenos Aires,8810,Fontezuela,-33.91422484112155,-60.46265425162015,commuter_rail,1894.0
Buenos Aires,8811,Pergamino,-33.889360280452976,-60.568569975627184,commuter_rail,1894.0
Buenos Aires,8812,Carlos Keen,-34.48671064148781,-59.21976190231905,commuter_rail,1881.0
Buenos Aires,8813,Azcuénaga,-34.36525052691813,-59.37648421113849,commuter_rail,1881.0
Buenos Aires,8814,"Kilómetro 0,72",-34.606435307303904,-58.53547657211571,commuter_rail,1908.0
Buenos Aires,8815,José Ingenieros,-34.61554789974821,-58.535870335266154,commuter_rail,1908.0
Buenos Aires,8816,Villa Real,-34.62119064890742,-58.526561428411796,commuter_rail,1908.0
Buenos Aires,8817,Ingeniero Echagüe,-34.627060526696106,-58.518627204249995,commuter_rail,1908.0
Buenos Aires,8818,Versailles,-34.628683369609796,-58.52432959475706,commuter_rail,1911.0
Buenos Aires,8819,"Kilómetro 11,10",-34.63317876406099,-58.51995064084821,commuter_rail,1911.0
Buenos Aires,8820,"Kilómetro 10,51",-34.6336158918092,-58.5139330533776,commuter_rail,1911.0
Buenos Aires,8821,Ingeniero Brian,-34.65831321469736,-58.3988792935975,commuter_rail,1873.0
Buenos Aires,8822,del Parque,-34.60107478273466,-58.382559557067545,commuter_rail,1857.0
Buenos Aires,8823,Almagro,-34.60981742496425,-58.4213549300154,commuter_rail,1857.0
Buenos Aires,8824,Villa Luro,-34.6360996561726,-58.50093520933922,commuter_rail,1911.0
Buenos Aires,8825,Liniers,-34.63883348270534,-58.52591439391439,commuter_rail,1872.0
Buenos Aires,8826,Ciudadela,-34.63993871646498,-58.54102017467348,commuter_rail,1910.0
Buenos Aires,8827,Ramos Mejía,-34.640478351185365,-58.56437953838406,commuter_rail,1858.0
Buenos Aires,8828,Avenida Maipú,-34.51396688188965,-58.48833930509092,light_rail,1995.0
Buenos Aires,8829,Borges,-34.50850101337656,-58.48476960865011,light_rail,1995.0
Buenos Aires,8830,Libertador,-34.50231922553563,-58.4820358629121,light_rail,1995.0
Buenos Aires,8831,Juan Anchorena,-34.48911429305742,-58.48123050026712,light_rail,1995.0
Buenos Aires,8832,Las Barrancas,-34.47243663261384,-58.492868196565766,light_rail,1995.0
Buenos Aires,8833,San Isidro R,-34.465198637723965,-58.50869150375196,light_rail,1995.0
Buenos Aires,8834,Punta Chica,-34.45048057403649,-58.52385231417945,light_rail,1995.0
Buenos Aires,8835,Marina Nueva,-34.444564575741985,-58.538924107425444,light_rail,1995.0
Buenos Aires,8836,San Fernando R,-34.43751984697326,-58.55393106633282,light_rail,1995.0
Buenos Aires,8837,Canal San Fernando,-34.43009697734602,-58.562692563812774,light_rail,1995.0
Buenos Aires,8838,Delta,-34.41849143823146,-58.576875290048534,light_rail,1995.0
Buenos Aires,8839,Delta,-34.41849139057126,-58.57687545432658,commuter_rail,1896.0
Buenos Aires,8840,Canal San Fernando,-34.43009773640422,-58.56269367429067,commuter_rail,1893.0
Buenos Aires,8841,San Fernando,-34.43751992532862,-58.553931141165805,commuter_rail,1892.0
Buenos Aires,8842,Punta Chica,-34.45048081757121,-58.52385308031867,commuter_rail,1892.0
Buenos Aires,8843,San Isidro R,-34.465200232693626,-58.5086903740324,commuter_rail,1891.0
Buenos Aires,8844,Las Barrancas,-34.47244480058749,-58.49287398366796,commuter_rail,1893.0
Buenos Aires,8845,Juan Anchorena,-34.489114250751136,-58.48122874860708,commuter_rail,1891.0
Buenos Aires,8846,Borges,-34.508500937298784,-58.48476968831628,commuter_rail,1896.0
Buenos Aires,8847,Zárate,-34.0975461818748,-59.03803234956308,commuter_rail,1876.0
Buenos Aires,8848,Kilómetro 83,-34.16026438692362,-58.97729964261421,commuter_rail,1876.0
Buenos Aires,8849,Campana,-34.15675014890851,-58.95855156888541,commuter_rail,1876.0
Buenos Aires,8850,Ingeniero Otamendi,-34.22183046710947,-58.89661300253188,commuter_rail,1876.0
Buenos Aires,8851,Río Luján,-34.277961474673276,-58.890227072998314,commuter_rail,1876.0
Buenos Aires,8852,Escobar,-34.34957379147659,-58.79508535118474,commuter_rail,1877.0
Buenos Aires,8853,Ingeniero Maschwitz,-34.3829657745293,-58.73634250460428,commuter_rail,1876.0
Buenos Aires,8854,Benavídez,-34.4092627649876,-58.684631534608144,commuter_rail,1876.0
Buenos Aires,8855,General Pacheco,-34.45581507422111,-58.62013545863971,commuter_rail,1876.0
Buenos Aires,8856,Bancalari,-34.47970468770192,-58.602889656187685,commuter_rail,1876.0
Buenos Aires,8857,20 de Julio,-34.47422425013791,-58.612747610872745,commuter_rail,1892.0
Buenos Aires,8858,Dique Luján,-34.35162878125279,-58.68762696517553,commuter_rail,1914.0
Buenos Aires,8859,Intendente Saguier,-34.64306288348926,-58.461852324410444,tram,1987.0
Buenos Aires,8860,Balbastro,-34.64871586854532,-58.456299890832994,tram,1987.0
Buenos Aires,8861,Mariano Acosta,-34.65437974384756,-58.45654715646777,tram,1987.0
Buenos Aires,8862,Somellera,-34.65653580407197,-58.45378271083462,tram,1987.0
Buenos Aires,8863,Ana María Janer,-34.65959057233384,-58.44991234270943,tram,1987.0
Buenos Aires,8864,Nuestra Señora de Fátima,-34.660536166980066,-58.448736968646436,tram,2000.0
Buenos Aires,8865,Fernández de la Cruz,-34.66226312281598,-58.44650643580956,tram,1987.0
Buenos Aires,8866,Presidente Illia,-34.665446822959645,-58.448889572091254,tram,1987.0
Buenos Aires,8867,Presidente Illia,-34.66529371252917,-58.44883308350196,tram,1987.0
Buenos Aires,8868,Parque de la Ciudad,-34.66901849769002,-58.45426332703083,tram,1987.0
Buenos Aires,8869,Cecilia Grierson,-34.67232720607125,-58.45769456051625,tram,1987.0
Buenos Aires,8870,Escalada,-34.67445371092862,-58.46005095133448,tram,1987.0
Buenos Aires,8871,Pola,-34.678090916478475,-58.46443441630648,tram,2006.0
Buenos Aires,8872,Ana Díaz,-34.680514509411594,-58.46680709732453,tram,1987.0
Buenos Aires,8873,Centro Cívico,-34.683567734149335,-58.46510250089386,tram,1987.0
Buenos Aires,8874,Larrazábal,-34.68059937539099,-58.46532460936515,tram,1987.0
Buenos Aires,8875,Nicolás Descalzi,-34.68282766342487,-58.46236199258477,tram,1987.0
Buenos Aires,8876,Gabino Ezeiza,-34.685861898543294,-58.45823696127458,tram,1987.0
Buenos Aires,8877,General Savio,-34.689715522467516,-58.46093536482354,tram,1987.0
Buenos Aires,8878,Agronomía,-34.59265849247005,-58.483175264222,commuter_rail,1888.0
Buenos Aires,8879,Tres Cruces,-34.5928631398946,-58.49066872719034,commuter_rail,1888.0
Buenos Aires,8880,Chivilcoy,-34.59630992483982,-58.51523111046892,commuter_rail,1888.0
Buenos Aires,8881,Avenida América,-34.596889124249294,-58.519103613797256,commuter_rail,1908.0
Buenos Aires,8882,Kilómetro 9,-34.592921987724395,-58.552597422967025,commuter_rail,1888.0
Buenos Aires,8883,Pereyra,-34.58723615561286,-58.63619741417465,commuter_rail,1888.0
Buenos Aires,8884,Teniente Balmaceda,-34.56753069247099,-58.65325504597118,commuter_rail,1914.0
Buenos Aires,8885,Carosella,-34.54704868525223,-58.681294463580244,commuter_rail,1914.0
Buenos Aires,8886,Teniente Perugorria,-34.54505117665861,-58.68404095533897,commuter_rail,1914.0
Buenos Aires,9051,Villa Soldati,-34.66223084267463,-58.44092041491918,commuter_rail,1908.0
Buenos Aires,9052,Presidente Illia,-34.66557197300914,-58.44889989569443,commuter_rail,1908.0
Buenos Aires,9053,Lugano,-34.67720767296419,-58.47702183523228,commuter_rail,1909.0
Buenos Aires,9054,Villa Madero,-34.6838985994516,-58.49167724457622,commuter_rail,1908.0
Buenos Aires,9055,Marinos del Fournier,-34.69012298504579,-58.50745582749913,commuter_rail,1908.0
Buenos Aires,9056,Tapiales,-34.70241880570872,-58.51166240132703,commuter_rail,1908.0
Buenos Aires,9057,Aldo Bonzi,-34.710773087297184,-58.5144026262588,commuter_rail,1909.0
Buenos Aires,9058,Mendeville,-34.712418455440655,-58.52436566958596,commuter_rail,1909.0
Buenos Aires,9059,José Ingenieros,-34.710792647163814,-58.537148686402105,commuter_rail,1909.0
Buenos Aires,9060,J. Villegas,-34.70899020697014,-58.55191702046102,commuter_rail,1909.0
Buenos Aires,9061,Isidro Casanova,-34.70454520559398,-58.58752216490387,commuter_rail,1909.0
Buenos Aires,9062,Rafael Castillo,-34.699701313567644,-58.62628252101021,commuter_rail,1909.0
Buenos Aires,9063,Merlo Gómez,-34.69703510516275,-58.647553362963635,commuter_rail,1909.0
Buenos Aires,9064,Libertad,-34.69214197995113,-58.68649002884753,commuter_rail,1909.0
Buenos Aires,9065,Marinos del Crucero General Belgrano,-34.709080686485635,-58.73160583089232,commuter_rail,1985.0
Buenos Aires,9066,Kilómetro 12,-34.709982332736494,-58.50601653164753,commuter_rail,1909.0
Buenos Aires,9068,Ingeniero Budge,-34.71883150188835,-58.46246058129085,commuter_rail,1908.0
Buenos Aires,9069,Fiorito,-34.705103476434765,-58.44046513076056,commuter_rail,1908.0
Buenos Aires,9070,Villa Caraza,-34.69790926617223,-58.429001596101656,commuter_rail,1909.0
Buenos Aires,9071,Villa Diamante,-34.68139132846383,-58.42833954276135,commuter_rail,1909.0
Buenos Aires,9072,Puente Alsina,-34.661167710820486,-58.41540895867769,commuter_rail,1908.0
Buenos Aires,9073,Ingeniero Castello,-34.71027295008304,-58.50596560810419,commuter_rail,1908.0
Buenos Aires,9074,Querandí,-34.722287439099276,-58.53050505846568,commuter_rail,1908.0
Buenos Aires,9075,Laferrere,-34.75082329156669,-58.58451967443341,commuter_rail,1913.0
Buenos Aires,9076,María Eva Duarte,-34.75640229925038,-58.60171300604152,commuter_rail,1999.0
Buenos Aires,9077,Independencia,-34.76033724222252,-58.61559895579296,commuter_rail,1981.0
Buenos Aires,9078,González Catán,-34.77166082327382,-58.64678773823722,commuter_rail,1908.0
Buenos Aires,9079,Mataderos,-34.66595239419723,-58.49288635188722,commuter_rail,1908.0
Buenos Aires,9080,Riachuelo,-34.65851180200702,-58.396294245169855,commuter_rail,1908.0
Buenos Aires,9081,La Salada,-34.718337270266865,-58.476293360426425,commuter_rail,1909.0
Buenos Aires,9082,La Salada,-34.71877178836844,-58.472809693217684,commuter_rail,2014.0
Buenos Aires,9083,Leopoldo Lugones,-34.589864552418426,-58.530891987648175,commuter_rail,1911.0
Buenos Aires,9084,Roma,-34.585269333858264,-58.53574090079441,commuter_rail,1911.0
Buenos Aires,9085,San Martín,-34.58080123056397,-58.53265319447631,commuter_rail,1911.0
Buenos Aires,9087,Francisco Álvarez,-34.63224282017066,-58.85527005113873,commuter_rail,1923.0
Buenos Aires,9088,Ingeniero Pablo Marín,-34.62277142513053,-58.89336111638106,commuter_rail,1864.0
Buenos Aires,9089,Las Malvinas,-34.61617176687064,-58.92172875962336,commuter_rail,1864.0
Buenos Aires,9090,General Rodríguez,-34.60888282930599,-58.95299060671233,commuter_rail,1864.0
Buenos Aires,9091,La Fraternidad,-34.598363291984604,-58.99803443020518,commuter_rail,1864.0
Buenos Aires,9092,Lezica y Torrezuri,-34.584571446866384,-59.05695181147529,commuter_rail,1864.0
Buenos Aires,9093,Universidad de Luján,-34.57738339629269,-59.087512336845435,commuter_rail,1984.0
Buenos Aires,9094,Luján,-34.5777572158616,-59.105107975286685,commuter_rail,1864.0
Buenos Aires,9095,Jáuregui,-34.60066158855176,-59.173629317695344,commuter_rail,1884.0
Buenos Aires,9096,Olivera,-34.62794644901348,-59.25540166888413,commuter_rail,1864.0
Buenos Aires,9097,Gowland,-34.647840937807686,-59.352999210596764,commuter_rail,1888.0
Buenos Aires,9098,Mercedes,-34.65767723652789,-59.4322410741576,commuter_rail,1864.0
Buenos Aires,9099,Lobos,-35.18479593181276,-59.09275976862641,commuter_rail,1871.0
Buenos Aires,9100,Empalme Lobos,-35.151617741784996,-59.0909857215718,commuter_rail,1871.0
Buenos Aires,9101,Zapiola,-35.05844298767401,-59.04200742416698,commuter_rail,1871.0
Buenos Aires,9102,Speratti,-35.001839556927145,-58.99966737379468,commuter_rail,1871.0
Buenos Aires,9103,Las Heras,-34.92802576364565,-58.94454051154989,commuter_rail,1871.0
Buenos Aires,9104,Hornos,-34.892324526753015,-58.917896239352785,commuter_rail,1884.0
Buenos Aires,9105,Zamudio,-34.857899336903984,-58.89221820344302,commuter_rail,1871.0
Buenos Aires,9106,Marcos Paz,-34.7830922609435,-58.83658108441683,commuter_rail,1870.0
Buenos Aires,9107,Mariano Acosta,-34.72439730357695,-58.79302331811266,commuter_rail,1910.0
Buenos Aires,9108,Agustín Ferrari,-34.706056388567646,-58.77941460111991,commuter_rail,1870.0
Buenos Aires,9109,"Kilómetro 34,5",-34.68011411629455,-58.76019398001776,commuter_rail,1870.0
Buenos Aires,9110,Constitución,-34.63066349036034,-58.3811065645115,commuter_rail,999999.0
Buenos Aires,9111,Buenos Aires,-34.64600661996504,-58.38991693762907,commuter_rail,999999.0
Buenos Aires,9122,Victoria,-34.45646342393778,-58.540477452948,commuter_rail,1892.0
Buenos Aires,9393,Gerli,-34.68609520500135,-58.38274732926794,commuter_rail,1910.0
Buenos Aires,9394,Adrogué,-34.79740623023402,-58.394279242359175,commuter_rail,1872.0
Buenos Aires,9395,Burzaco,-34.825075966749814,-58.39139403874837,commuter_rail,1888.0
Buenos Aires,9396,Longchamps,-34.85960708800601,-58.387227717674264,commuter_rail,1910.0
Buenos Aires,9397,Glew,-34.88831199505677,-58.38378608752277,commuter_rail,1865.0
Buenos Aires,9398,Guernica,-34.91795084623992,-58.38057801248314,commuter_rail,1888.0
Buenos Aires,9399,Alejandro Korn,-34.981023992470654,-58.373750573612114,commuter_rail,1865.0
Buenos Aires,9400,San Vicente,-35.03141561686641,-58.41540121160635,commuter_rail,1928.0
Buenos Aires,9401,Donselaar,-35.070348607730274,-58.290420533562084,commuter_rail,1865.0
Buenos Aires,9402,Coronel Brandsen,-35.16801173513268,-58.23188127013695,commuter_rail,1865.0
Buenos Aires,9403,Jeppener,-35.27761940603295,-58.1982197824545,commuter_rail,1865.0
Buenos Aires,9404,Altamirano,-35.36109045557809,-58.15125121921244,commuter_rail,1865.0
Buenos Aires,9405,Gándara,-35.44944889507488,-58.09401077910698,commuter_rail,1865.0
Buenos Aires,9406,Chascomús,-35.57899825353,-57.98242164894312,commuter_rail,1865.0
Buenos Aires,9407,Venezuela,-34.6136383659099,-58.36926576976103,commuter_rail,1865.0
Buenos Aires,9408,Casa Amarilla,-34.62757291577777,-58.3679747581066,commuter_rail,1865.0
Buenos Aires,9409,General Brown,-34.63842375836673,-58.36409157771982,commuter_rail,1865.0
Buenos Aires,9410,Barraca Peña,-34.647814609367984,-58.36427960649367,commuter_rail,1865.0
Buenos Aires,9411,Tres Esquinas,-34.65128244194473,-58.371319631126084,commuter_rail,1865.0
Buenos Aires,9412,Barracas Iglesia,-34.6600734352151,-58.37056928143095,commuter_rail,1865.0
Buenos Aires,9413,Sarandí,-34.678839469087265,-58.345115463198084,commuter_rail,1872.0
Buenos Aires,9414,Villa Domínico,-34.69147810684601,-58.325423853216975,commuter_rail,1909.0
Buenos Aires,9415,Wilde,-34.697567900218665,-58.31119561302967,commuter_rail,1888.0
Buenos Aires,9416,Don Bosco,-34.70331897060207,-58.29626879658515,commuter_rail,1927.0
Buenos Aires,9417,Bernal,-34.70935877428989,-58.28043154278262,commuter_rail,1878.0
Buenos Aires,9418,Quilmes,-34.724392110035154,-58.26086720125474,commuter_rail,1872.0
Buenos Aires,9419,Ezpeleta,-34.75191455724391,-58.234117621192695,commuter_rail,1889.0
Buenos Aires,9420,Berazategui,-34.76397968363534,-58.20875703066591,commuter_rail,1872.0
Buenos Aires,9421,Plátanos,-34.782320568782296,-58.17083319375679,commuter_rail,1872.0
Buenos Aires,9422,Hudson,-34.79099611919698,-58.15552627793119,commuter_rail,1872.0
Buenos Aires,9423,Pereyra,-34.83655981828059,-58.094665070145645,commuter_rail,1872.0
Buenos Aires,9424,Villa Elisa,-34.84970369874253,-58.07501594887336,commuter_rail,1884.0
Buenos Aires,9425,Juan Vicetich,-34.84401647675629,-58.140963617774474,commuter_rail,1884.0
Buenos Aires,9426,City Bell,-34.86457482538544,-58.0444818061637,commuter_rail,1914.0
Buenos Aires,9427,Manuel B. Gonnet,-34.87994247070761,-58.01055656094972,commuter_rail,1889.0
Buenos Aires,9428,Ringuelet,-34.88148520896717,-57.996242216666346,commuter_rail,1886.0
Buenos Aires,9429,José Hernández,-34.9070656544057,-58.018719305368094,commuter_rail,1883.0
Buenos Aires,9430,Melchor Romero,-34.947107629160264,-58.05240823682668,commuter_rail,1883.0
Buenos Aires,9431,Abasto,-34.982829642017066,-58.09157390005517,commuter_rail,1883.0
Buenos Aires,9432,"Kilómetro 65,635",-35.00622650049481,-58.11703004303472,commuter_rail,1883.0
Buenos Aires,9433,Gómez,-35.06752161184894,-58.16634944891888,commuter_rail,1883.0
Buenos Aires,9434,Kilómetro 82,-35.13402291757318,-58.21919380820441,commuter_rail,1883.0
Buenos Aires,9435,Ringuelet,-34.88161576364827,-57.99605787948893,commuter_rail,1883.0
Buenos Aires,9436,Tolosa,-34.89098614500584,-57.96807874006787,commuter_rail,1883.0
Buenos Aires,9437,La Plata,-34.90416075437674,-57.94997257822797,commuter_rail,1906.0
Buenos Aires,9438,Ensenada,-34.86237692942431,-57.90268726778511,commuter_rail,1872.0
Buenos Aires,9440,Remolcador Guaraní,-34.83352771242447,-57.95062304941534,commuter_rail,1889.0
Buenos Aires,9441,Punta Lara,-34.814542638300566,-57.980918244015996,commuter_rail,1872.0
Buenos Aires,9479,Cañuelas,-35.05939749536497,-58.754449921654526,commuter_rail,1885.0
Buenos Aires,9480,Dr. Ricardo Levene,-35.021791014391376,-58.72396897714334,commuter_rail,1885.0
Buenos Aires,9481,Kloosterman,-34.98642546443428,-58.68979890030117,commuter_rail,1885.0
Buenos Aires,9482,Alejandro Petión,-34.9776492535802,-58.67464003739515,commuter_rail,1885.0
Buenos Aires,9483,Vicente Casares,-34.962260395403455,-58.64792925722247,commuter_rail,1885.0
Buenos Aires,9484,Máximo Paz,-34.936378168126005,-58.620585908934515,commuter_rail,1885.0
Buenos Aires,9485,Carlos Spegazzini,-34.909961720987226,-58.594278924679585,commuter_rail,1885.0
Buenos Aires,9486,Tristán Suárez,-34.88938404895361,-58.56790307949878,commuter_rail,1885.0
Buenos Aires,9487,Unión Ferroviaria,-34.87024307632745,-58.543396776717685,commuter_rail,1885.0
Buenos Aires,9488,Ezeiza,-34.85414337625113,-58.52281748016533,commuter_rail,1885.0
Buenos Aires,9489,El Jagüel,-34.83333721140208,-58.4962527615793,commuter_rail,1965.0
Buenos Aires,9491,Monte Grande,-34.814502866959415,-58.46972388751297,commuter_rail,1913.0
Buenos Aires,9492,Luis Guillón,-34.80326496824997,-58.44854746509459,commuter_rail,1885.0
Buenos Aires,9493,Lavallol,-34.79714557660003,-58.430091295765735,commuter_rail,1885.0
Buenos Aires,9494,Turdera,-34.79511175992314,-58.408065765726434,commuter_rail,1885.0
Buenos Aires,9509,Juan María Gutiérrez,-34.83401925541962,-58.18560337676169,commuter_rail,1883.0
Buenos Aires,9510,Santa Sofía,-34.82500929721735,-58.21340066157694,commuter_rail,1883.0
Buenos Aires,9511,Bosques,-34.819478731275886,-58.23044609441553,commuter_rail,1883.0
Buenos Aires,9512,Sourigues,-34.80715481127373,-58.213076158264855,commuter_rail,1939.0
Buenos Aires,9513,Ranelagh,-34.78942431502421,-58.20324291019966,commuter_rail,1911.0
Buenos Aires,9514,Villa España,-34.77505711420906,-58.19527064819597,commuter_rail,1911.0
Buenos Aires,9515,Zeballos,-34.81099763270648,-58.25672746712864,commuter_rail,1911.0
Buenos Aires,9516,Florencio Varela,-34.811142045438814,-58.27409781630274,commuter_rail,1883.0
Buenos Aires,9517,Ingeniero Dante Ardigó,-34.808889393768126,-58.302541662661525,commuter_rail,1970.0
Buenos Aires,9518,Claypole,-34.80120695642858,-58.33811186841868,commuter_rail,1883.0
Buenos Aires,9519,Rafael Calzada,-34.796718089803726,-58.35905267749277,commuter_rail,1883.0
Buenos Aires,9520,José Mármol,-34.79190821226856,-58.38129976634288,commuter_rail,1875.0
Buenos Aires,9521,Hospital Español,-34.78621734530725,-58.40752058219027,commuter_rail,1940.0
Buenos Aires,9522,Santa Catalina,-34.78021753317704,-58.43749473674373,commuter_rail,1875.0
Buenos Aires,9523,Juan XXIII,-34.77138788295507,-58.44410041194821,commuter_rail,1932.0
Buenos Aires,9524,Kilómetro 34,-34.74341199822329,-58.46504771378565,commuter_rail,1963.0
Buenos Aires,9525,Intendente Pedro P. Turner,-34.73339133111717,-58.47466231972548,commuter_rail,1971.0
Buenos Aires,9526,Agustín De Elía,-34.70992995864605,-58.505939045111035,commuter_rail,1875.0
Buenos Aires,9527,La Tablada,-34.692982074611095,-58.5281626494034,commuter_rail,1875.0
Buenos Aires,9528,San Justo,-34.67399599761981,-58.555621544459214,commuter_rail,1886.0
Buenos Aires,9529,Ingeniero Santiago Brian,-34.658195887550875,-58.57290169793809,commuter_rail,1886.0
Buenos Aires,9530,Haedo,-34.645002156894044,-58.591892951819176,commuter_rail,1886.0
Buenos Aires,9531,Mataderos,-34.66708547091135,-58.493998158025235,commuter_rail,1903.0
Buenos Aires,9532,1º de Marzo,-34.605156395914506,-58.36719603747939,commuter_rail,1948.0
Buenos Aires,11222,Belgrano C (Provisoria),-34.56132912109165,-58.444001365561476,commuter_rail,2018.0
Buenos Aires,11360,Dr. A. Sáenz,-34.64909751090013,-58.41633944216629,commuter_rail,2019.0
Buenos Aires,11474,Pacífico,-34.577603210015,-58.42658837245274,brt,2011.0
Buenos Aires,11475,Guatemala,-34.58185913304692,-58.43002686927646,brt,2011.0
Buenos Aires,11476,Honduras,-34.58536063778866,-58.43473114480781,brt,2011.0
Buenos Aires,11477,Aguirre,-34.5922655366666,-58.44069876343872,brt,2011.0
Buenos Aires,11478,Av. Corrientes,-34.59476518261869,-58.444300296056014,brt,2011.0
Buenos Aires,11479,Murillo,-34.59710855760198,-58.44766512281004,brt,2011.0
Buenos Aires,11480,Av. Honorio Pueyrredón,-34.6001301620002,-58.45203672293043,brt,2011.0
Buenos Aires,11481,Av. San Martín,-34.604486830592634,-58.45843662575572,brt,2011.0
Buenos Aires,11482,Av. Donato Álvarez,-34.60737905331317,-58.46269212805849,brt,2011.0
Buenos Aires,11483,Boyacá,-34.61130046994225,-58.46786590873967,brt,2011.0
Buenos Aires,11484,Artigas,-34.613837568631965,-58.47224809378544,brt,2011.0
Buenos Aires,11485,Av. Nazca,-34.6180853226691,-58.47610929147045,brt,2011.0
Buenos Aires,11486,Concordia,-34.62205944029195,-58.48082279089786,brt,2011.0
Buenos Aires,11487,Chivilcoy,-34.6251362871732,-58.485943342786726,brt,2011.0
Buenos Aires,11488,Av. Segurola,-34.62698079145599,-58.491096328851214,brt,2011.0
Buenos Aires,11489,Carrasco,-34.629514674639246,-58.49484508642206,brt,2011.0
Buenos Aires,11490,Av. Lope de Vega,-34.63216813398419,-58.50097487432102,brt,2011.0
Buenos Aires,11491,Cortina,-34.63432397220794,-58.506711593807296,brt,2011.0
Buenos Aires,11492,Polideportivo Vélez Sarsfield,-34.63345352701354,-58.51381723878393,brt,2011.0
Buenos Aires,11493,Liniers,-34.638246095774555,-58.52590872134148,brt,2011.0
Buenos Aires,11989,Ladines,-34.5903920538441,-58.51536788574974,brt,2016.0
Buenos Aires,11990,Mosconi,-34.59168417096368,-58.511025869033006,brt,2016.0
Buenos Aires,11991,Cubas,-34.593014635285044,-58.50734409870769,brt,2016.0
Buenos Aires,11992,Solano López,-34.59592812341117,-58.49955311991138,brt,2016.0
Buenos Aires,11993,Roffo,-34.596906207285315,-58.49522789002131,brt,2016.0
Buenos Aires,11994,Comunicaciones,-34.59717709389518,-58.491189902573964,brt,2016.0
Buenos Aires,11995,2 de Abril,-34.59746620683019,-58.486821864517054,brt,2016.0
Buenos Aires,11996,Agronomía,-34.59780363442355,-58.48317499750277,brt,2016.0
Buenos Aires,11997,Empedrado,-34.598837092137224,-58.480787530009266,brt,2016.0
Buenos Aires,11998,Argentinos Juniors,-34.60155607326411,-58.47029108897334,brt,2016.0
Buenos Aires,11999,Donato Álvarez,-34.60284535698199,-58.464923346639324,brt,2016.0
Buenos Aires,12000,Pappo Napolitano,-34.604274434067044,-58.45924197611143,brt,2016.0
Buenos Aires,12001,Santa Fe,-34.5955870252168,-58.38217025097288,brt,2013.0
Buenos Aires,12002,Marcelo T. de Alvear,-34.59699495248187,-58.38201268675272,brt,2013.0
Buenos Aires,12003,Paraguay,-34.598168552857864,-58.38190740115371,brt,2013.0
Buenos Aires,12004,Córdoba,-34.59940579465848,-58.38184952918952,brt,2013.0
Buenos Aires,12005,Teatro Colón,-34.60054531672263,-58.381787986536295,brt,2013.0
Buenos Aires,12006,Obelisco Norte,-34.60188380598754,-58.38171866120352,brt,2013.0
Buenos Aires,12007,Obelisco Sur,-34.60529346116121,-58.381540537529546,brt,2013.0
Buenos Aires,12008,Juan D. Perón,-34.606493901910525,-58.38146603553638,brt,2013.0
Buenos Aires,12009,Mitre,-34.60766782323051,-58.38139926952704,brt,2013.0
Buenos Aires,12010,Yrigoyen,-34.60983470933252,-58.38125439372895,brt,2013.0
Buenos Aires,12011,Alsina,-34.61095992845478,-58.38116544135872,brt,2013.0
Buenos Aires,12012,Belgrano,-34.6133960245679,-58.38107105835384,brt,2013.0
Buenos Aires,12013,Venezuela,-34.61452043072694,-58.38100606183497,brt,2013.0
Buenos Aires,12014,México,-34.61549647211488,-58.380982769803296,brt,2013.0
Buenos Aires,12015,Chile,-34.61674937256953,-58.380931872912754,brt,2013.0
Buenos Aires,12016,Independencia,-34.6178744911944,-58.38088373165348,brt,2013.0
Buenos Aires,12017,Estados Unidos,-34.61887820333129,-58.380841361845796,brt,2013.0
Buenos Aires,12018,Ricardo Rojas,-34.59471875438921,-58.372971682455244,brt,2017.0
Buenos Aires,12019,Marcelo T. de Alvear,-34.595643608512134,-58.372529759626374,brt,2017.0
Buenos Aires,12020,Paraguay,-34.59671948511358,-58.37201784423918,brt,2017.0
Buenos Aires,12021,Av. Córdoba,-34.59798981153855,-58.3713460185739,brt,2017.0
Buenos Aires,12022,Viamonte,-34.59897668450975,-58.37095541238037,brt,2017.0
Buenos Aires,12023,Tucumán,-34.600160791533014,-58.37065580541339,brt,2017.0
Buenos Aires,12024,Lavalle,-34.6013183105127,-58.37043530416072,brt,2017.0
Buenos Aires,12025,Av. Corrientes,-34.60254712190323,-58.370300913222536,brt,2017.0
Buenos Aires,12026,Sarmiento,-34.603643775435835,-58.370215485964565,brt,2017.0
Buenos Aires,12027,Perón,-34.60494692501471,-58.37011162053717,brt,2017.0
Buenos Aires,12028,Alsina,-34.6098603367112,-58.36944710673697,brt,2017.0
Buenos Aires,12029,Moreno,-34.610573344898626,-58.369432231230945,brt,2017.0
Buenos Aires,12030,Av. Belgrano,-34.61173981990938,-58.36939442676204,brt,2017.0
Buenos Aires,12031,México,-34.61421517180508,-58.36923881508483,brt,2017.0
Buenos Aires,12032,Chile,-34.61540244172519,-58.36917752838542,brt,2017.0
Buenos Aires,12033,Av. Independencia,-34.616595323175034,-58.36911799782243,brt,2017.0
Buenos Aires,12034,Constitución,-34.6276103106284,-58.38092815335976,brt,2013.0
Buenos Aires,12035,Combate de los Pozos,-34.62724044865389,-58.39164467915474,brt,2013.0
Buenos Aires,12036,Entre Ríos,-34.629552588959776,-58.39199172340015,brt,2013.0
Buenos Aires,12037,Garrahan,-34.63017925106682,-58.39529019852833,brt,2013.0
Buenos Aires,12038,Pichincha,-34.62797759232366,-58.3962075148135,brt,2013.0
Buenos Aires,12039,Jujuy,-34.631712173399684,-58.40085793225907,brt,2013.0
Buenos Aires,12040,Jujuy,-34.628663638398166,-58.40086181560996,brt,2013.0
Buenos Aires,12041,La Rioja,-34.63112109223062,-58.40717352383666,brt,2013.0
Buenos Aires,12042,La Rioja,-34.63384227423834,-58.406483464537914,brt,2013.0
Buenos Aires,12043,Brasil,-34.634754221029944,-58.40948808712203,brt,2013.0
Buenos Aires,12044,Sánchez de Loria,-34.63360216580493,-58.4101283847952,brt,2013.0
Buenos Aires,12045,Bathurst,-34.636337002114466,-58.410699278292384,brt,2013.0
Buenos Aires,12046,Boedo,-34.63708566456951,-58.41552153496745,brt,2013.0
Buenos Aires,12047,,-34.64216370275092,-58.41286203657846,brt,2013.0
Buenos Aires,12048,Caseros,-34.64003747467266,-58.41930716045033,brt,2013.0
Buenos Aires,12049,Av. La Plata,-34.643097173178816,-58.42313967302667,brt,2013.0
Buenos Aires,12050,José C. Paz,-34.64505932685932,-58.41423214399377,brt,2013.0
Buenos Aires,12051,Grito de Asencio,-34.647825568939446,-58.41587539230282,brt,2013.0
Buenos Aires,12052,Pompeya,-34.65180384587179,-58.416353080232014,brt,2013.0
Buenos Aires,12053,Sáenz,-34.65510829792544,-58.417442541790024,brt,2013.0
Buenos Aires,12054,Vedia,-34.6564045515883,-58.42178153910588,brt,2013.0
Buenos Aires,12055,Bonorino,-34.65856458565249,-58.42630994343031,brt,2013.0
Buenos Aires,12056,Berg,-34.65994574901688,-58.42927095678286,brt,2013.0
Buenos Aires,12057,Varela,-34.66154003891749,-58.432735339410954,brt,2013.0
Buenos Aires,12058,Lafuente,-34.6635479946232,-58.43707362052615,brt,2013.0
Buenos Aires,12059,Mariano Acosta,-34.66646053102278,-58.44039638424137,brt,2013.0
Buenos Aires,12060,Lacarra,-34.668352823624566,-58.44245148499306,brt,2013.0
Buenos Aires,12061,Parque Roca,-34.67171545876946,-58.44521192967902,brt,2013.0
Buenos Aires,12062,Estadio Parque Roca,-34.676411699258935,-58.44815352744227,brt,2013.0
Buenos Aires,12063,Escalada,-34.68237433258256,-58.45296269975863,brt,2013.0
Buenos Aires,12064,Larrazábal,-34.68628892317645,-58.45749074545826,brt,2013.0
Buenos Aires,12065,Larrazábal,-34.686451713188134,-58.457158683926465,brt,2013.0
Buenos Aires,12066,Soldado de la Frontera,-34.68985473202467,-58.461188229473365,brt,2013.0
Buenos Aires,12067,Soldado de la Frontera,-34.68991248858697,-58.46106322218229,brt,2013.0
Buenos Aires,12068,Lisandro de la Torre,-34.69208148568188,-58.46353524512452,brt,2013.0
Buenos Aires,12069,Piedrabuena,-34.69452766355327,-58.466183745307575,brt,2013.0
Buenos Aires,12070,Guaminí,-34.695854444112555,-58.46761894971392,brt,2013.0
Buenos Aires,12071,General Paz,-34.69784525279242,-58.46980608781956,brt,2013.0
Buenos Aires,12072,Puente La Noria,-34.7045467451845,-58.46185048253294,brt,2013.0
Buenos Aires,12073,José L. Suárez,-34.69007811798246,-58.47809758401414,brt,2013.0
Buenos Aires,12074,Montiel,-34.6889360989254,-58.476846019155275,brt,2013.0
Buenos Aires,12075,Piedrabuena,-34.68787446609324,-58.47567173950824,brt,2013.0
Buenos Aires,12076,Lisandro de la Torre,-34.68481185893205,-58.47227778783157,brt,2013.0
Buenos Aires,12077,Pola,-34.67868271400021,-58.46532091117406,brt,2013.0
Buenos Aires,12078,Escalada,-34.67533447778061,-58.46155811429334,brt,2013.0
Buenos Aires,12079,Cecilia Grierson,-34.669144468447,-58.45467500593054,brt,2013.0
Buenos Aires,12080,Laguna,-34.664276761238526,-58.44891515806482,brt,2013.0
Buenos Aires,12081,Lafuente,-34.65944997929758,-58.44259248723952,brt,2013.0
Buenos Aires,12082,Varela,-34.65552368903367,-58.43808221323869,brt,2013.0
Buenos Aires,12083,San Lorenzo,-34.65304057836177,-58.434484915159246,brt,2013.0
Buenos Aires,12084,Perito Moreno,-34.65030974469519,-58.43106961170352,brt,2013.0
Buenos Aires,12085,Del Barco Centenera,-34.647587694372405,-58.427990506397435,brt,2013.0
Buenos Aires,12086,Thames,-34.580714875552644,-58.422120622647796,brt,2016.0
Buenos Aires,12087,Uriarte,-34.58013577726729,-58.42301703423355,brt,2016.0
Buenos Aires,12088,Darregueyra,-34.579548712739474,-58.423889554848216,brt,2016.0
Buenos Aires,12089,Oro,-34.57898031226003,-58.424780385832946,brt,2016.0
Buenos Aires,12090,Juan B. Justo,-34.577954817402336,-58.426897122043314,brt,2016.0
Buenos Aires,12091,Humboldt,-34.57763874469705,-58.427921672999275,brt,2016.0
Buenos Aires,12092,Fitz Roy,-34.57725890739533,-58.429289722420236,brt,2016.0
Buenos Aires,12093,Matienzo,-34.57242573782169,-58.44014271128394,brt,2016.0
Buenos Aires,12094,Jorge Newbery,-34.57178171512807,-58.4413300321219,brt,2016.0
Buenos Aires,12095,Maure,-34.57131367660797,-58.44220497223638,brt,2016.0
Buenos Aires,12096,Gorostiaga,-34.570943784855196,-58.44294446522835,brt,2016.0
Buenos Aires,12097,Olleros,-34.57013474006004,-58.44456464614872,brt,2016.0
Buenos Aires,12098,Teodoro García,-34.56924635209861,-58.44635368483186,brt,2016.0
Buenos Aires,12099,Palpa,-34.56905738476997,-58.44674037640462,brt,2016.0
Buenos Aires,12100,Aguilar,-34.56885970698617,-58.4471426320728,brt,2016.0
Buenos Aires,12101,Céspedes,-34.56814151474205,-58.44852462560887,brt,2016.0
Buenos Aires,12102,Zabala,-34.56787655280695,-58.44901674654041,brt,2016.0
Buenos Aires,12103,Virrey Loreto,-34.5673812672342,-58.44992879080452,brt,2016.0
Buenos Aires,12104,Virrey Arredondo,-34.56645907818407,-58.45162516690627,brt,2016.0
Buenos Aires,12105,Virrey del Pino,-34.56597352396303,-58.45251430271486,brt,2016.0
Buenos Aires,12106,La Pampa,-34.56436225727243,-58.45468968542684,brt,2016.0
Buenos Aires,12107,Sucre,-34.56340961770993,-58.45550749246719,brt,2016.0
Buenos Aires,12108,Juramento,-34.56181204949186,-58.456877930604264,brt,2016.0
Buenos Aires,12109,Mendoza,-34.56062249520425,-58.457897443995535,brt,2016.0
Buenos Aires,12110,Olazábal,-34.55965706268093,-58.45872350904955,brt,2016.0
Buenos Aires,12111,Blanco Encalada,-34.558726114655705,-58.459542141475936,brt,2016.0
Buenos Aires,12112,Monroe,-34.55797446674086,-58.46022801185113,brt,2016.0
Buenos Aires,12113,Roosevelt,-34.55691631412104,-58.46119643962872,brt,2016.0
Buenos Aires,12114,Ugarte,-34.55596086711608,-58.46209928213655,brt,2016.0
Buenos Aires,12115,Congreso,-34.55497059319146,-58.46306158067749,brt,2015.0
Buenos Aires,12116,Quesada,-34.55400087559077,-58.46404100623434,brt,2015.0
Buenos Aires,12117,Iberá,-34.553128721143786,-58.46484885317096,brt,2015.0
Buenos Aires,12118,Campos Salles,-34.551699965072885,-58.46599397061466,brt,2015.0
Buenos Aires,12119,Manuel Pedraza,-34.551241411888356,-58.46635541358968,brt,2015.0
Buenos Aires,12120,Juana Azurduy,-34.55049951959385,-58.46695315631463,brt,2015.0
Buenos Aires,12121,Núñez,-34.54995266545729,-58.467400899435944,brt,2015.0
Buenos Aires,12122,Crisólogo Larralde,-34.5487620028816,-58.46835856718664,brt,2015.0
Buenos Aires,12123,Manzanares,-34.54756154949889,-58.469318402808014,brt,2015.0
Buenos Aires,12124,Paroissien,-34.54688648117368,-58.4698354723362,brt,2015.0
Buenos Aires,12125,Vilela,-34.54627531264063,-58.470290466236065,brt,2015.0
Buenos Aires,12126,Besares,-34.54558425461056,-58.47080598376418,brt,2015.0
Buenos Aires,12127,Ruiz Huidobro,-34.544895493948154,-58.47132200621357,brt,2015.0
Buenos Aires,12128,Correa,-34.54416416846817,-58.47186347873898,brt,2015.0
Buenos Aires,12129,Ramallo,-34.54336062794414,-58.47245635968636,brt,2015.0
Buenos Aires,12130,Arias,-34.54260928821719,-58.47301538269386,brt,2015.0
Buenos Aires,12131,Deheza,-34.54188234802239,-58.4735671277122,brt,2015.0
Buenos Aires,12132,Pico,-34.541031879735456,-58.47419809519917,brt,2015.0
Buenos Aires,12133,General Paz,-34.538855741865795,-58.475852058006126,brt,2015.0
Buenos Aires,12134,Laprida,-34.535903124219814,-58.47738270879927,brt,2015.0
Buenos Aires,12135,Alsina,-34.534863536713495,-58.47789846272423,brt,2015.0
Buenos Aires,12136,Álvarez,-34.533963581186995,-58.47835000471642,brt,2015.0
Buenos Aires,12137,Lavalle,-34.533063929640555,-58.47880226950714,brt,2015.0
Buenos Aires,12138,Las Heras,-34.53204590141826,-58.4793220715503,brt,2015.0
Buenos Aires,12139,Güemes,-34.53109606309113,-58.479804097039846,brt,2015.0
Buenos Aires,12140,Melo,-34.53008631745144,-58.480335324148456,brt,2015.0
Buenos Aires,12141,Haedo,-34.529315888572185,-58.48074694009874,brt,2015.0
Buenos Aires,12142,Santa Rosa,-34.528215370077554,-58.48134172375478,brt,2015.0
Buenos Aires,12143,Roca,-34.52728269081479,-58.48186390997722,brt,2015.0
Buenos Aires,12144,Urquiza,-34.52634934986436,-58.48238084190409,brt,2015.0
Buenos Aires,12145,Vergara,-34.52537311002033,-58.48292366698233,brt,2015.0
Buenos Aires,12146,San Martín,-34.52436286953625,-58.483489473643814,brt,2015.0
Buenos Aires,12147,Arenales,-34.52342942297777,-58.48400399734493,brt,2015.0
Buenos Aires,12148,Libertad,-34.52252266950599,-58.48449147158165,brt,2015.0
Buenos Aires,12149,Yrigoyen,-34.52144820949722,-58.48504423981228,brt,2015.0
Buenos Aires,12150,Italia,-34.52032700151654,-58.4856297997583,brt,2015.0
Buenos Aires,12151,Malaver,-34.518989409075985,-58.48634903954756,brt,2015.0
Buenos Aires,15799,Av. Córdoba,-34.5888397020154,-58.438246591259215,brt,2019.0
Buenos Aires,15835,Belgrano C,-34.55853930971004,-58.44947362974356,commuter_rail,2019.0
Buenos Aires,15836,Lisandro de la Torre,-34.562590632309075,-58.43586480272448,commuter_rail,2019.0
Buenos Aires,15837,Villa Crespo,-34.59259952085958,-58.4467196357067,commuter_rail,2023.0
Buenos Aires,15838,La Paternal,-34.596860417650106,-58.4667363245745,commuter_rail,2022.0
Buenos Aires,15925,Avellaneda,-34.674252646810004,-58.36240605712169,commuter_rail,1926.0
Buenos Aires,15926,Ángel Fernández,-34.71589705814512,-58.35607082553082,commuter_rail,1926.0
Buenos Aires,15927,Monte Chingolo,-34.73149997764739,-58.35007363969828,commuter_rail,1926.0
Buenos Aires,15928,Pasco,-34.75140490038395,-58.34285826519087,commuter_rail,1926.0
Buenos Aires,15929,San Francisco Solano,-34.78134128618198,-58.316676686395425,commuter_rail,1926.0
Buenos Aires,15930,Gobernador Monteverde,-34.7972333097882,-58.274151470711956,commuter_rail,1926.0
Buenos Aires,15931,Kilómetro 40,-34.8031741051376,-58.25706404071937,commuter_rail,1926.0
Buenos Aires,15932,Kilómetro 36,-34.8329089093102,-58.23260453680591,commuter_rail,1926.0
Buenos Aires,15933,Ingeniero Allan,-34.868390668388024,-58.18831986356807,commuter_rail,1926.0
Buenos Aires,15934,Centro Agrícola El Pato,-34.877846522160986,-58.17206244421358,commuter_rail,1926.0
Buenos Aires,15935,Arturo Seguí,-34.88843972969,-58.12633579298095,commuter_rail,1926.0
Buenos Aires,15936,Joaquín Gorina,-34.908653339138105,-58.040727159116756,commuter_rail,1926.0
Buenos Aires,15937,La Cumbre,-34.9229742234864,-57.99422361749946,commuter_rail,1926.0
Buenos Aires,15938,Gambier,-34.9374388703493,-57.97469462335164,commuter_rail,1926.0
Buenos Aires,15939,La Plata,-34.93973278281898,-57.93904076672871,commuter_rail,1926.0
Buenos Aires,15940,Solá,-34.64546177758071,-58.388034772760676,commuter_rail,1969.0
Buenos Aires,16599,Scalabrini Ortiz,-34.54833748327551,-58.43824774358585,commuter_rail,1912.0
Buenos Aires,16620,Lambaré,-34.63555917243212,-58.58642469386299,brt,2018.0
Buenos Aires,16621,Fassola,-34.63546270992283,-58.59217841050658,brt,2018.0
Buenos Aires,16622,Dolores Prats,-34.63557860750253,-58.59743265632915,brt,2018.0
Buenos Aires,16623,Primera Junta,-34.63581245136373,-58.602608804379614,brt,2018.0
Buenos Aires,16624,Derqui,-34.634241875367216,-58.612867804108504,brt,2018.0
Buenos Aires,16625,La Rioja,-34.633601202792505,-58.617371650612185,brt,2018.0
Buenos Aires,16626,Amado Nervo,-34.63504739958942,-58.60756981355729,brt,2018.0
Buenos Aires,16627,Tucumán,-34.56283002590687,-58.624178009154775,brt,2017.0
Buenos Aires,16628,Hugo del Carril,-34.56282018353652,-58.61973852836675,brt,2017.0
Buenos Aires,16629,Gabino Ezeiza,-34.56276598436349,-58.6134764385295,brt,2017.0
Buenos Aires,16630,1° de Mayo,-34.56276087293959,-58.610062248018295,brt,2017.0
Buenos Aires,16631,Hospital Dr. Bocalandro,-34.56272778149378,-58.60262481698358,brt,2017.0
Buenos Aires,16632,General Lavalle,-34.56266917802651,-58.598334241441364,brt,2017.0
Buenos Aires,16633,San Martín,-34.56262943536249,-58.593507418473706,brt,2017.0
Buenos Aires,16634,Los Andes,-34.71294805497789,-58.308380584556986,brt,2019.0
Buenos Aires,16635,Montevideo,-34.716382498764894,-58.30485286229779,brt,2019.0
Buenos Aires,16636,Cerrito,-34.720155982502625,-58.30368266614799,brt,2019.0
Buenos Aires,16637,Zapiola,-34.72528090700532,-58.302117294634584,brt,2019.0
Buenos Aires,16638,Fornabaio,-34.7529030099642,-58.28410756440148,brt,2019.0
Buenos Aires,16640,Esquiú,-34.75529824421676,-58.28225258403103,brt,2019.0
Buenos Aires,16641,Centro Comercial,-34.76010158101793,-58.278487750402846,brt,2019.0
Buenos Aires,16642,General Savio,-34.76496862629793,-58.27468343009451,brt,2019.0
Buenos Aires,16643,Hospital el Cruce,-34.77154240323344,-58.26907187028222,brt,2019.0
Buenos Aires,16644,República de Francia,-34.768468357790724,-58.27195374077823,brt,2019.0
Buenos Aires,16645,UNAJ,-34.77366008308732,-58.26745130266001,brt,2019.0
Buenos Aires,16647,Rotonda San Justo,-34.68424436391323,-58.55698284304157,brt,2017.0
Buenos Aires,16648,Dr. Ignacio Arieta,-34.68279137919168,-58.55492714896441,brt,2017.0
Buenos Aires,16649,Derqui,-34.68765865197023,-58.56443350665832,brt,2017.0
Buenos Aires,16650,Gral. Madariaga,-34.69064343984134,-58.56948065513926,brt,2017.0
Buenos Aires,16651,Pedro León Gallo,-34.69397756541523,-58.57373748031662,brt,2017.0
Buenos Aires,16652,Hospital Paroissien,-34.6969771249364,-58.57631205883014,brt,2017.0
Buenos Aires,16653,Roma,-34.70299283987904,-58.58176282453286,brt,2017.0
Buenos Aires,16654,Cristianía,-34.70838437003428,-58.58689663553153,brt,2017.0
Buenos Aires,16655,Marconi,-34.71361898983261,-58.59219280974635,brt,2017.0
Buenos Aires,16656,Carlos Casares,-34.71971865572112,-58.59642280379377,brt,2017.0
Buenos Aires,16657,Tres Cruces,-34.72471266403163,-58.59879603479766,brt,2017.0
Buenos Aires,16658,Hospital Materno Infantil,-34.73045751502605,-58.601540379668336,brt,2017.0
Buenos Aires,16659,P. Luro,-34.73577377947146,-58.60366903308186,brt,2017.0
Buenos Aires,16660,Salvigny,-34.74091400435765,-58.60622973266442,brt,2017.0
Buenos Aires,16661,Recuero,-34.74500471069509,-58.60893176888263,brt,2017.0
Buenos Aires,16662,Da Vinci,-34.749152678654795,-58.611661439189476,brt,2017.0
Buenos Aires,16663,Intendente Federico Russo,-34.75445273369226,-58.61442514531727,brt,2017.0
Buenos Aires,16664,Centro de Trasbordo González Catán,-34.75939013838763,-58.61645899292687,brt,2017.0
Buenos Aires,16665,O´Donnell,-34.56587535326168,-58.56503586531346,brt,2019.0
Buenos Aires,16666,José Hernández,-34.5650973057036,-58.56858453724902,brt,2019.0
Buenos Aires,16667,Martín Fierro,-34.56399330979582,-58.57359568477406,brt,2019.0
Buenos Aires,16668,Cuba,-34.56261139027034,-58.58040675603009,brt,2019.0
Buenos Aires,16669,Reconquista,-34.562602054925144,-58.585813768226544,brt,2019.0
Buenos Aires,16670,Guido Spano,-34.56867084157056,-58.55687170486769,brt,2019.0
Buenos Aires,16671,Hospital Eva Perón,-34.57130081970557,-58.55355751033896,brt,2019.0
Buenos Aires,16672,José C. Paz,-34.57526353793706,-58.54857594579052,brt,2019.0
Buenos Aires,16673,Moreno,-34.566790330892154,-58.56086641504551,brt,2019.0
Buenos Aires,16674,Murature,-34.58793576635238,-58.523606486942576,brt,2019.0
Buenos Aires,16675,Av. General Paz,-34.589040619243534,-58.519937575334495,brt,2019.0
Buenos Aires,16704,Rodríguez Peña,-34.58734751900473,-58.52566353386561,brt,2019.0
Buenos Aires,16705,20 de Junio,-34.780221943650254,-58.73797901744153,commuter_rail,2019.0
Buenos Aires,16706,Uribelarrea,-35.11538685901585,-58.8984450120404,commuter_rail,2019.0
Buenos Aires,16707,Monte,-35.436684695317545,-58.81757027465409,commuter_rail,2019.0
Buenos Aires,16708,Abbott,-35.281313176757905,-58.80284292125134,commuter_rail,2019.0
Buenos Aires,16709,La Noria,-35.16524555083791,-58.78816981687336,commuter_rail,2019.0
Buenos Aires,16710,Policlínico,-34.92537929594972,-57.9213603898547,light_rail,2013.0
Buenos Aires,16711,Diagonal 73,-34.92003969503036,-57.919112823988954,light_rail,2013.0
Buenos Aires,16712,Periodismo,-34.91237871784125,-57.924089277733955,light_rail,2013.0
Buenos Aires,16713,Medicina,-34.908809057955146,-57.92813105192589,light_rail,2013.0
Buenos Aires,16714,Informática,-34.90319831355811,-57.93774209404758,light_rail,2013.0
Buenos Aires,16715,Arquitectura,-34.904816432544585,-57.94283099323066,light_rail,2013.0
Buenos Aires,16716,La Plata,-34.90403727571648,-57.94977935010645,light_rail,2013.0
Buenos Aires,16717,Cabral,-34.77690908837654,-58.265006089380705,brt,2019.0
Buenos Aires,16718,Sáenz,-34.64947650634418,-58.41772579034085,heavy_rail,999999.0
Buenos Aires,16719,Lavalleja,-34.75234287998794,-58.28455207070337,brt,2019.0
Buenos Aires,19423,Panamericana,-34.43922054868512,-58.82412018248861,commuter_rail,
Buenos Aires,26768,Marcos Paz,-34.786577192431366,-58.829651386801245,commuter_rail,2021.0
Buenos Aires,27697,Avenida 7,-34.9311341188428,-57.92755423764447,light_rail,2022.0
Buenos Aires,27698,Circunvalación,-34.93676277582451,-57.93376671684281,light_rail,2022.0
Buenos Aires,27699,Meridiano V,-34.942425928136934,-57.93987838709485,light_rail,2022.0
Buenos Aires,27700,Avenida 25,-34.948040174596926,-57.94611904662369,light_rail,2022.0
Buenos Aires,32975,Saldías,-34.5727900671953,-58.40235688412307,commuter_rail,2024.0
Buenos Aires,33770,Quilmes Sur,-34.74122926936522,-58.245848776273064,commuter_rail,
Buenos Aires,33771,Hospital Cuenca Alta,-35.025851953844544,-58.72849162159014,commuter_rail,
Buenos Aires,33772,Gdor. Costa,-34.80446958908896,-58.32305272168843,commuter_rail,
Buenos Aires,33773,UNAB,-34.83949804956685,-58.38966492511368,commuter_rail,
Buenos Aires,33774,Güemes,-34.67257847827111,-58.362160319441145,commuter_rail,
Buenos Aires,33775,Hospital Ezeiza,-34.863864706303,-58.53522458947177,commuter_rail,
Buenos Aires,35188,Villars,-34.82897791043616,-58.93842663103149,commuter_rail,2022.0
Buenos Aires,36655,Manuela Pedraza,-34.55129873118776,-58.466274417671,heavy_rail,
