city,nodeID,nodeLabel,latitude,longitude,mode,year
Shenzhen,28997,红岭,22.5510443,114.0994625,heavy_rail,2016.0
Shenzhen,28998,红岭南,22.5423312,114.0998465,heavy_rail,2016.0
Shenzhen,28999,鹿丹村,22.5383199,114.1038017,heavy_rail,2016.0
Shenzhen,29000,向西村,22.5425468,114.1205656,heavy_rail,2016.0
Shenzhen,29001,文锦,22.5450935,114.125928,heavy_rail,2016.0
Shenzhen,29002,园岭,22.5588226,114.0994875,heavy_rail,2016.0
Shenzhen,29003,人民南,22.5381078,114.1131147,heavy_rail,2016.0
Shenzhen,29004,红岭北,22.5646988,114.0994619,heavy_rail,2016.0
Shenzhen,29005,华强路,22.5430985,114.0799488,heavy_rail,2004.0
Shenzhen,29006,科学馆,22.5432972,114.0897588,heavy_rail,2004.0
Shenzhen,29007,大剧院,22.5446089,114.1029184,heavy_rail,2004.0
Shenzhen,29008,老街,22.5468305,114.1112307,heavy_rail,2004.0
Shenzhen,29009,国贸,22.5424963,114.1137443,heavy_rail,2004.0
Shenzhen,29010,罗湖,22.5333351,114.1131294,heavy_rail,2004.0
Shenzhen,29011,前海湾,22.5403548,113.8929801,heavy_rail,2011.0
Shenzhen,29012,鲤鱼门,22.5350523,113.8985019,heavy_rail,2011.0
Shenzhen,29013,大新,22.5352188,113.9103558,heavy_rail,2011.0
Shenzhen,29014,桃园,22.5353742,113.9196624,heavy_rail,2011.0
Shenzhen,29015,深大,22.5410925,113.9389154,heavy_rail,2009.0
Shenzhen,29016,高新园,22.5432579,113.9492862,heavy_rail,2009.0
Shenzhen,29017,白石洲,22.5424759,113.9622556,heavy_rail,2009.0
Shenzhen,29018,世界之窗,22.5400797,113.9687649,heavy_rail,2004.0
Shenzhen,29019,华侨城,22.5363773,113.9805151,heavy_rail,2004.0
Shenzhen,29020,侨城东,22.5353355,113.9913882,heavy_rail,2004.0
Shenzhen,29021,竹子林,22.536975739246003,114.00888105549365,heavy_rail,2004.0
Shenzhen,29022,车公庙,22.5389783,114.0208722,heavy_rail,2004.0
Shenzhen,29023,香蜜湖,22.5416101,114.0337293,heavy_rail,2004.0
Shenzhen,29024,购物公园,22.5373961,114.0496475,heavy_rail,2004.0
Shenzhen,29025,会展中心,22.5374619,114.0562638,heavy_rail,2004.0
Shenzhen,29026,岗厦,22.5375977,114.0629468,heavy_rail,2004.0
Shenzhen,29028,福田口岸,22.5184106,114.0639228,heavy_rail,2007.0
Shenzhen,29029,福民,22.5258976,114.0596985,heavy_rail,2004.0
Shenzhen,29030,会展中心,22.537176,114.0558982,heavy_rail,2004.0
Shenzhen,29031,莲花北,22.5634918,114.0542511,heavy_rail,2011.0
Shenzhen,29032,上梅林,22.5730593,114.0542781,heavy_rail,2011.0
Shenzhen,29033,市民中心,22.5444329,114.0558186,heavy_rail,2004.0
Shenzhen,29034,少年宫‎,22.5505539,114.0557428,heavy_rail,2011.0
Shenzhen,29035,香蜜,22.5557564,114.0185909,heavy_rail,2011.0
Shenzhen,29036,侨香,22.552489,114.0093232,heavy_rail,2011.0
Shenzhen,29037,安托山,22.5517113,114.0014314,heavy_rail,2011.0
Shenzhen,29038,深康,22.5493454,113.993659,heavy_rail,2011.0
Shenzhen,29039,红树湾,22.528027,113.9634089,heavy_rail,2010.0
Shenzhen,29040,海上世界,22.4880882,113.9102633,heavy_rail,2010.0
Shenzhen,29041,后海,22.5203871,113.9353833,heavy_rail,2010.0
Shenzhen,29042,湾厦,22.4964712,113.9337088,heavy_rail,2010.0
Shenzhen,29044,登良,22.5119025,113.9328354,heavy_rail,2010.0
Shenzhen,29045,水湾,22.4914385,113.9148066,heavy_rail,2010.0
Shenzhen,29046,蛇口港,22.4799621,113.9071614,heavy_rail,2010.0
Shenzhen,29047,赤湾,22.4823134,113.8925745,heavy_rail,2010.0
Shenzhen,29048,东角头,22.489132,113.9264154,heavy_rail,2010.0
Shenzhen,29049,海月,22.5031262,113.9328608,heavy_rail,2010.0
Shenzhen,29050,侨城北,22.5472614,113.9838574,heavy_rail,2011.0
Shenzhen,29051,世界之窗,22.5399084,113.9695392,heavy_rail,2010.0
Shenzhen,29052,科苑,22.530110047771657,113.94180394625363,heavy_rail,2010.0
Shenzhen,29053,后瑞,22.6317437,113.8303127,heavy_rail,2011.0
Shenzhen,29054,机场东,22.6499658,113.8175767,heavy_rail,2011.0
Shenzhen,29055,固戍,22.6037711,113.8419981,heavy_rail,2011.0
Shenzhen,29056,西乡,22.5790488,113.8569711,heavy_rail,2011.0
Shenzhen,29057,坪洲,22.5719235,113.8657386,heavy_rail,2011.0
Shenzhen,29058,宝体,22.5632096,113.8764402,heavy_rail,2011.0
Shenzhen,29059,宝安中心,22.5576219,113.8822956,heavy_rail,2011.0
Shenzhen,29060,新安,22.5507165,113.8895238,heavy_rail,2011.0
Shenzhen,29061,香梅北,22.5566662,114.0278124,heavy_rail,2011.0
Shenzhen,29062,景田,22.5563132,114.0389403,heavy_rail,2011.0
Shenzhen,29063,银湖,22.5714534,114.0844014,heavy_rail,2016.0
Shenzhen,29064,梅村,22.5711912,114.0471666,heavy_rail,2016.0
Shenzhen,29065,香梅,22.5481329,114.0343288,heavy_rail,2016.0
Shenzhen,29066,下梅林,22.5684761,114.0368653,heavy_rail,2016.0
Shenzhen,29067,孖岭,22.5711444,114.0631365,heavy_rail,2016.0
Shenzhen,29068,泥岗,22.5699605,114.0917758,heavy_rail,2016.0
Shenzhen,29069,梅景,22.5635799,114.0329144,heavy_rail,2016.0
Shenzhen,29070,上梅林,22.5711147,114.055317,heavy_rail,2016.0
Shenzhen,29071,车公庙,22.5384629,114.0234696,heavy_rail,2016.0
Shenzhen,29072,景田,22.5560775,114.0384529,heavy_rail,2016.0
Shenzhen,29073,华强北,22.5470822,114.0802441,heavy_rail,2011.0
Shenzhen,29074,黄贝岭,22.5488343,114.1313656,heavy_rail,2011.0
Shenzhen,29075,新秀,22.550528,114.144061,heavy_rail,2011.0
Shenzhen,29076,市民中心,22.5433545,114.0567039,heavy_rail,2011.0
Shenzhen,29077,岗厦北,22.5435961,114.0638627,heavy_rail,2011.0
Shenzhen,29078,福田,22.5428907,114.0479647,heavy_rail,2011.0
Shenzhen,29079,大剧院,22.5437907,114.1028975,heavy_rail,2011.0
Shenzhen,29080,莲花西,22.5498212,114.0449575,heavy_rail,2011.0
Shenzhen,29081,燕南,22.5471795,114.0869036,heavy_rail,2011.0
Shenzhen,29082,湖贝,22.5470243,114.1204778,heavy_rail,2011.0
Shenzhen,29083,莲塘口岸,22.5563496,114.1510097,heavy_rail,2020.0
Shenzhen,29084,仙湖路,22.5667194,114.1613531,heavy_rail,2020.0
Shenzhen,29085,莲塘,22.5668773,114.1689505,heavy_rail,2020.0
Shenzhen,29086,沙头角,22.557148,114.2219352,heavy_rail,2020.0
Shenzhen,29087,海山,22.5591781,114.2341481,heavy_rail,2020.0
Shenzhen,29088,盐田路,22.5910065,114.2502968,heavy_rail,2020.0
Shenzhen,29089,盐田港西,22.5651981,114.2419326,heavy_rail,2020.0
Shenzhen,29090,梧桐山南,22.5592643,114.1799532,heavy_rail,2020.0
Shenzhen,29091,深外高中,22.5865741,114.2397057,heavy_rail,2020.0
Shenzhen,29098,民乐,22.5969357,114.0435235,heavy_rail,2011.0
Shenzhen,29099,白石龙,22.6041381,114.037337,heavy_rail,2011.0
Shenzhen,29100,深圳北站,22.6131625,114.0252509,heavy_rail,2011.0
Shenzhen,29101,清湖,22.666773,114.0313775,heavy_rail,2011.0
Shenzhen,29102,龙华,22.6543593,114.017324,heavy_rail,2011.0
Shenzhen,29103,龙胜,22.6474533,114.007045,heavy_rail,2011.0
Shenzhen,29104,上塘,22.6397841,114.0078166,heavy_rail,2011.0
Shenzhen,29105,红山,22.6246007,114.0184093,heavy_rail,2011.0
Shenzhen,29106,清湖北,22.6750164,114.035373,heavy_rail,2020.0
Shenzhen,29107,观澜湖,22.724579,114.0720357,heavy_rail,2020.0
Shenzhen,29108,竹村,22.6895677,114.0351705,heavy_rail,2020.0
Shenzhen,29109,茜坑,22.7013475,114.0363917,heavy_rail,2020.0
Shenzhen,29110,长湖,22.7135235,114.0395758,heavy_rail,2020.0
Shenzhen,29111,观澜,22.7180371,114.0498155,heavy_rail,2020.0
Shenzhen,29112,松元厦,22.7239179,114.061238,heavy_rail,2020.0
Shenzhen,29113,牛湖,22.7266264,114.0824942,heavy_rail,2020.0
Shenzhen,29114,福保,22.5106485,114.0501748,heavy_rail,2011.0
Shenzhen,29115,少年宫‎,22.5512219,114.0550211,heavy_rail,2011.0
Shenzhen,29116,福田‎,22.5425799,114.047824,heavy_rail,2011.0
Shenzhen,29117,购物公园,22.5365588,114.0479875,heavy_rail,2011.0
Shenzhen,29118,石厦‎,22.5262677,114.0484739,heavy_rail,2011.0
Shenzhen,29119,益田‎,22.5187963,114.0459292,heavy_rail,2011.0
Shenzhen,29120,莲花村‎,22.5513408,114.0627066,heavy_rail,2011.0
Shenzhen,29121,福民,22.52796,114.0630909,heavy_rail,2020.0
Shenzhen,29122,福田口岸,22.517893,114.062784,heavy_rail,2020.0
Shenzhen,29123,岗厦,22.5373638,114.0630124,heavy_rail,2020.0
Shenzhen,29124,岗厦北,22.5437813,114.0628218,heavy_rail,2020.0
Shenzhen,29125,莲花村,22.5513646,114.0627516,heavy_rail,2020.0
Shenzhen,29126,冬瓜岭,22.5635149,114.0625686,heavy_rail,2020.0
Shenzhen,29127,华强北,22.5456628,114.0816404,heavy_rail,2016.0
Shenzhen,29128,华新‎,22.5517771,114.0815341,heavy_rail,2016.0
Shenzhen,29129,晒布,22.5514333,114.1174089,heavy_rail,2011.0
Shenzhen,29130,老街,22.5469013,114.1112759,heavy_rail,2011.0
Shenzhen,29131,红岭,22.5518357,114.0979816,heavy_rail,2011.0
Shenzhen,29132,通新岭‎,22.5517324,114.0910508,heavy_rail,2011.0
Shenzhen,29133,华新‎,22.5518064,114.0825167,heavy_rail,2011.0
Shenzhen,29136,水贝,22.576918,114.1196697,heavy_rail,2011.0
Shenzhen,29137,田贝,22.569952,114.1250482,heavy_rail,2011.0
Shenzhen,29138,翠竹,22.5589018,114.1247748,heavy_rail,2011.0
Shenzhen,29139,草埔,22.587119,114.1114673,heavy_rail,2010.0
Shenzhen,29143,木棉湾,22.6096794,114.1252994,heavy_rail,2010.0
Shenzhen,29144,布吉,22.6043661,114.1165282,heavy_rail,2010.0
Shenzhen,29145,大芬,22.6168876,114.133389,heavy_rail,2010.0
Shenzhen,29146,丹竹头,22.6224619,114.143057,heavy_rail,2010.0
Shenzhen,29147,六约,22.6371,114.1757359,heavy_rail,2010.0
Shenzhen,29148,塘坑,22.6420313,114.187791,heavy_rail,2010.0
Shenzhen,29149,荷坳,22.6759232,114.2194585,heavy_rail,2010.0
Shenzhen,29150,永湖,22.6618511,114.2131909,heavy_rail,2010.0
Shenzhen,29151,横岗,22.6512497,114.2041849,heavy_rail,2010.0
Shenzhen,29152,南联,22.7247933,114.2607567,heavy_rail,2010.0
Shenzhen,29153,龙城广场,22.7197895,114.2497871,heavy_rail,2010.0
Shenzhen,29154,吉祥,22.7123615,114.2395049,heavy_rail,2010.0
Shenzhen,29155,爱联,22.7003549,114.2295632,heavy_rail,2010.0
Shenzhen,29156,大运,22.688551,114.2232801,heavy_rail,2010.0
Shenzhen,29157,双龙,22.7315757,114.2726625,heavy_rail,2010.0
Shenzhen,29164,塘朗,22.5929153,113.994706,heavy_rail,2011.0
Shenzhen,29165,长岭陂,22.6022502,114.0052718,heavy_rail,2011.0
Shenzhen,29166,大学城,22.5852198,113.9601581,heavy_rail,2011.0
Shenzhen,29167,西丽,22.5837373,113.9488619,heavy_rail,2011.0
Shenzhen,29168,留仙洞,22.5836145,113.9390847,heavy_rail,2011.0
Shenzhen,29169,兴东,22.5848218,113.9139763,heavy_rail,2011.0
Shenzhen,29170,洪浪北,22.577759,113.9057425,heavy_rail,2011.0
Shenzhen,29171,灵芝,22.5720883,113.8991598,heavy_rail,2011.0
Shenzhen,29172,翻身,22.5630024,113.888423,heavy_rail,2011.0
Shenzhen,29173,宝安中心,22.5575135,113.882072,heavy_rail,2011.0
Shenzhen,29174,宝华,22.5527535,113.8802156,heavy_rail,2011.0
Shenzhen,29175,临海,22.5472497,113.8842967,heavy_rail,2011.0
Shenzhen,29176,前海湾,22.5403356,113.8927277,heavy_rail,2011.0
Shenzhen,29178,民治,22.6204557,114.0360317,heavy_rail,2011.0
Shenzhen,29179,五和,22.629556,114.0553112,heavy_rail,2011.0
Shenzhen,29180,坂田,22.6300349,114.0650917,heavy_rail,2011.0
Shenzhen,29181,杨美,22.6292857,114.0751218,heavy_rail,2011.0
Shenzhen,29182,上水径,22.6247934,114.1001107,heavy_rail,2011.0
Shenzhen,29183,下水径,22.6182644,114.10537,heavy_rail,2011.0
Shenzhen,29184,长龙,22.6113555,114.1078662,heavy_rail,2011.0
Shenzhen,29185,布吉,22.6046657,114.1163341,heavy_rail,2011.0
Shenzhen,29186,百鸽笼,22.5973977,114.1253587,heavy_rail,2011.0
Shenzhen,29187,布心,22.583566,114.133031,heavy_rail,2011.0
Shenzhen,29188,太安,22.5769407,114.1323257,heavy_rail,2011.0
Shenzhen,29189,怡景,22.5588771,114.1351383,heavy_rail,2011.0
Shenzhen,29190,黄贝岭,22.5487939,114.1313968,heavy_rail,2011.0
Shenzhen,29191,高新南,22.535795,113.946499,heavy_rail,2019.0
Shenzhen,29192,荔林,22.5148639,113.9084726,heavy_rail,2019.0
Shenzhen,29193,深大南,22.5290739,113.9310022,heavy_rail,2019.0
Shenzhen,29194,粤海门,22.5357313,113.9417501,heavy_rail,2019.0
Shenzhen,29195,梦海,22.5221589,113.8940178,heavy_rail,2019.0
Shenzhen,29196,前湾,22.5249861,113.8905872,heavy_rail,2019.0
Shenzhen,29197,南山书城,22.5222283,113.9238653,heavy_rail,2019.0
Shenzhen,29198,南油,22.5135737,113.9211151,heavy_rail,2019.0
Shenzhen,29199,南油西,22.5123067,113.9134879,heavy_rail,2019.0
Shenzhen,29200,怡海,22.5186049,113.8981777,heavy_rail,2019.0
Shenzhen,29201,赤湾,22.4821885,113.8924557,heavy_rail,2019.0
Shenzhen,29202,荔湾,22.5010895,113.8881747,heavy_rail,2019.0
Shenzhen,29203,铁路公园,22.5052523,113.8853103,heavy_rail,2019.0
Shenzhen,29204,妈湾,22.5111368,113.8808658,heavy_rail,2019.0
Shenzhen,29205,前湾公园,22.5195459,113.8858162,heavy_rail,2019.0
Shenzhen,29206,前湾,22.5251446,113.8908359,heavy_rail,2019.0
Shenzhen,29207,桂湾,22.5344581,113.8928332,heavy_rail,2019.0
Shenzhen,29208,官田,22.6861941,113.9469434,heavy_rail,2020.0
Shenzhen,29209,上屋,22.692181,113.9336228,heavy_rail,2020.0
Shenzhen,29212,上芬,22.6432958,114.0116059,heavy_rail,2020.0
Shenzhen,29213,元芬,22.6590992,114.000164,heavy_rail,2020.0
Shenzhen,29214,阳台山东,22.6707892,113.9866264,heavy_rail,2020.0
Shenzhen,29215,长圳,22.7293218,113.926087,heavy_rail,2020.0
Shenzhen,29216,凤凰城,22.750482,113.9280782,heavy_rail,2020.0
Shenzhen,29217,光明大街,22.7661088,113.9386465,heavy_rail,2020.0
Shenzhen,29218,光明,22.7744323,113.9402984,heavy_rail,2020.0
Shenzhen,29219,科学公园,22.7805641,113.9290364,heavy_rail,2020.0
Shenzhen,29220,楼村,22.7787438,113.9164266,heavy_rail,2020.0
Shenzhen,29221,合水口,22.7852599,113.8747027,heavy_rail,2020.0
Shenzhen,29222,薯田埔,22.7840691,113.8630456,heavy_rail,2020.0
Shenzhen,29223,红花山,22.780934,113.901883,heavy_rail,2020.0
Shenzhen,29224,公明广场,22.7809167,113.8861201,heavy_rail,2020.0
Shenzhen,29225,松岗公园,22.7813124,113.8446426,heavy_rail,2020.0
Shenzhen,29226,溪头,22.7774057,113.8319845,heavy_rail,2020.0
Shenzhen,29227,松岗,22.7752639,113.8247874,heavy_rail,2020.0
Shenzhen,29228,红山,22.6245568,114.0183355,heavy_rail,2020.0
Shenzhen,29229,梅林关,22.5965156,114.0486411,heavy_rail,2020.0
Shenzhen,29230,科学馆,22.5421275,114.0912197,heavy_rail,2020.0
Shenzhen,29231,通新岭‎,22.5517013,114.0910322,heavy_rail,2020.0
Shenzhen,29232,银湖,22.5706278,114.0836104,heavy_rail,2020.0
Shenzhen,29233,体育中心,22.5573385,114.0906334,heavy_rail,2020.0
Shenzhen,29234,八卦岭,22.5633903,114.0888249,heavy_rail,2020.0
Shenzhen,29235,翰岭,22.5770471,114.06383,heavy_rail,2020.0
Shenzhen,29242,孖岭,22.5700346,114.0617687,heavy_rail,2020.0
Shenzhen,29243,雅宝,22.607101,114.0551571,heavy_rail,2020.0
Shenzhen,29244,南坑,22.6139764,114.055515,heavy_rail,2020.0
Shenzhen,29246,五和,22.6289369,114.0556816,heavy_rail,2020.0
Shenzhen,29248,坂田北,22.6375579,114.0582528,heavy_rail,2020.0
Shenzhen,29249,贝尔路,22.6442926,114.0612888,heavy_rail,2020.0
Shenzhen,29250,华为,22.6531184,114.0620525,heavy_rail,2020.0
Shenzhen,29251,岗头,22.6595142,114.0666396,heavy_rail,2020.0
Shenzhen,29252,深圳北站,22.6131168,114.0252016,heavy_rail,2020.0
Shenzhen,29253,笋岗,22.5658905,114.1058381,heavy_rail,2016.0
Shenzhen,29254,红岭北,22.5646938,114.0999968,heavy_rail,2016.0
Shenzhen,29255,洪湖‎,22.5686849,114.1173198,heavy_rail,2016.0
Shenzhen,29256,黄木岗,22.5585964,114.0821633,heavy_rail,2016.0
Shenzhen,29257,八卦岭,22.5645485,114.0899776,heavy_rail,2016.0
Shenzhen,29258,田贝‎,22.5697422,114.1239692,heavy_rail,2016.0
Shenzhen,29259,太安,22.5769792,114.132157,heavy_rail,2016.0
Shenzhen,29260,石厦‎,22.5258219,114.0485186,heavy_rail,2016.0
Shenzhen,29261,皇岗口岸,22.5242265,114.0692511,heavy_rail,2016.0
Shenzhen,29262,皇岗村,22.5258791,114.0539382,heavy_rail,2016.0
Shenzhen,29263,华强南,22.5399495,114.0817081,heavy_rail,2016.0
Shenzhen,29264,福邻（未开通）,22.5281183,114.0759062,heavy_rail,2016.0
Shenzhen,29265,赤尾,22.5345522,114.0787607,heavy_rail,2016.0
Shenzhen,29266,上沙,22.5273616,114.0305978,heavy_rail,2016.0
Shenzhen,29267,沙尾,22.5234788,114.0375732,heavy_rail,2016.0
Shenzhen,29268,福民,22.5259799,114.0606391,heavy_rail,2016.0
Shenzhen,29269,深圳湾公园,22.5247756,113.9885756,heavy_rail,2016.0
Shenzhen,29270,下沙,22.5316512,114.0181915,heavy_rail,2016.0
Shenzhen,29271,红树湾南,22.5260488,113.9664416,heavy_rail,2016.0
Shenzhen,29272,车公庙,22.5384412,114.0233503,heavy_rail,2016.0
Shenzhen,29273,深湾,22.5260446,113.9737285,heavy_rail,2016.0
Shenzhen,29274,农林,22.5433389,114.0131841,heavy_rail,2016.0
Shenzhen,29275,安托山,22.5514996,114.0012899,heavy_rail,2016.0
Shenzhen,29276,深云,22.5594868,113.9888763,heavy_rail,2016.0
Shenzhen,29277,珠光,22.5713699,113.9557851,heavy_rail,2016.0
Shenzhen,29278,茶光,22.577136,113.949502,heavy_rail,2016.0
Shenzhen,29279,龙井,22.5672228,113.9697733,heavy_rail,2016.0
Shenzhen,29280,桃源村,22.5628913,113.9769859,heavy_rail,2016.0
Shenzhen,29281,西丽,22.5837094,113.9495955,heavy_rail,2016.0
Shenzhen,29282,西丽湖,22.5965468,113.9605299,heavy_rail,2016.0
Shenzhen,29283,雪象,22.6596932,114.0735948,heavy_rail,2020.0
Shenzhen,29284,甘坑,22.6502975,114.1009316,heavy_rail,2020.0
Shenzhen,29285,上李朗,22.6566734,114.1219091,heavy_rail,2020.0
Shenzhen,29286,木古,22.6726205,114.1173713,heavy_rail,2020.0
Shenzhen,29287,华南城,22.6785628,114.1172561,heavy_rail,2020.0
Shenzhen,29288,禾花,22.6891213,114.1160107,heavy_rail,2020.0
Shenzhen,29289,平湖,22.6964379,114.1209042,heavy_rail,2020.0
Shenzhen,29290,双拥街,22.7011507,114.1277233,heavy_rail,2020.0
Shenzhen,29291,凉帽山,22.6489267,114.1135841,heavy_rail,2020.0
Shenzhen,29292,福田‎,22.5427372,114.0482381,heavy_rail,2016.0
Shenzhen,29293,车公庙,22.5388549,114.0212601,heavy_rail,2016.0
Shenzhen,29294,红树湾南,22.5259063,113.9664223,heavy_rail,2016.0
Shenzhen,29295,后海,22.5212686,113.938193,heavy_rail,2016.0
Shenzhen,29296,南山,22.5270235,113.9189459,heavy_rail,2016.0
Shenzhen,29297,前海湾,22.5400957,113.8923796,heavy_rail,2016.0
Shenzhen,29298,宝安,22.5577085,113.8754799,heavy_rail,2016.0
Shenzhen,29299,碧海湾,22.57876,113.8502403,heavy_rail,2016.0
Shenzhen,29300,机场,22.6263599,113.8089077,heavy_rail,2016.0
Shenzhen,29301,机场北,22.6540678,113.7929327,heavy_rail,2016.0
Shenzhen,29302,桥头,22.6910074,113.8058817,heavy_rail,2016.0
Shenzhen,29303,塘尾,22.7049097,113.8127621,heavy_rail,2016.0
Shenzhen,29304,马安山,22.7197938,113.8118943,heavy_rail,2016.0
Shenzhen,29305,沙井,22.7335605,113.8193369,heavy_rail,2016.0
Shenzhen,29306,福永,22.6761788,113.8008771,heavy_rail,2016.0
Shenzhen,29307,后亭,22.7534486,113.8215351,heavy_rail,2016.0
Shenzhen,29308,松岗,22.7752085,113.8245949,heavy_rail,2016.0
Shenzhen,29309,碧头,22.7862303,113.8149635,heavy_rail,2016.0
Shenzhen,29310,机场北,22.6544408,113.7937574,heavy_rail,2021.0
Shenzhen,29311,国展南,22.6867105,113.7729798,heavy_rail,2021.0
Shenzhen,29312,国展,22.6983864,113.7730334,heavy_rail,2021.0
Shenzhen,29313,国展北,22.7080036,113.7716036,heavy_rail,2021.0
Shenzhen,29314,会展城,22.714961,113.7646291,heavy_rail,2021.0
Shenzhen,34561,岗厦北,22.543238604964102,114.06219329278326,heavy_rail,2022.0
Shenzhen,34562,岗厦北,22.543166524381082,114.06380281000517,heavy_rail,2022.0
Shenzhen,34564,黄木岗,22.55887717422119,114.08148666613604,heavy_rail,2022.0
Shenzhen,34565,罗湖北,22.583068673992585,114.10828655807768,heavy_rail,2022.0
Shenzhen,34566,布吉,22.60474556237551,114.11565507867968,heavy_rail,2022.0
Shenzhen,34567,石芽岭,22.63091359692976,114.13253694955984,heavy_rail,2022.0
Shenzhen,34568,六约北,22.645320522263475,114.17081891975937,heavy_rail,2022.0
Shenzhen,34569,四联,22.651243727348728,114.18811282584994,heavy_rail,2022.0
Shenzhen,34570,坳背,22.671816460069692,114.20862790072391,heavy_rail,2022.0
Shenzhen,34571,大运,22.68855965759009,114.22314310881148,heavy_rail,2022.0
Shenzhen,34572,嶂背,22.694543533306245,114.24567182498026,heavy_rail,2022.0
Shenzhen,34573,南约,22.69092158153194,114.27285541321282,heavy_rail,2022.0
Shenzhen,34574,宝龙,22.691223712055276,114.29297384456311,heavy_rail,2022.0
Shenzhen,34575,锦龙,22.68294247127504,114.32891146648922,heavy_rail,2022.0
Shenzhen,34576,坪山围,22.693944463950046,114.33864124312703,heavy_rail,2022.0
Shenzhen,34577,坪山广场,22.7035200570063,114.34376463319029,heavy_rail,2022.0
Shenzhen,34578,坪山中心,22.710527409445817,114.34682840134923,heavy_rail,2022.0
Shenzhen,34579,坑梓,22.74804258809904,114.36595602431942,heavy_rail,2022.0
Shenzhen,34580,沙田,22.759089005545192,114.39693014061754,heavy_rail,2022.0
Shenzhen,34581,大运,22.68858103179049,114.22297101179458,heavy_rail,2022.0
Shenzhen,34582,双龙,22.732049906775885,114.27239338114066,heavy_rail,2022.0
Shenzhen,34583,坪山,22.70846368146404,114.32282942551751,heavy_rail,2022.0
Shenzhen,34584,坪山围,22.693789620662386,114.33779074770047,heavy_rail,2022.0
Shenzhen,34585,宝龙同乐,22.71202994749237,114.30772122236476,heavy_rail,2022.0
Shenzhen,34586,龙东,22.722755816636706,114.29494754951708,heavy_rail,2022.0
Shenzhen,34587,新塘围,22.72824183171221,114.28171267406617,heavy_rail,2022.0
Shenzhen,34588,六和,22.698550196083033,114.33291077838226,heavy_rail,2022.0
Shenzhen,34589,新和,22.705649315145024,114.33081830525026,heavy_rail,2022.0
Shenzhen,34590,田心,22.696397755951708,114.41007724350442,heavy_rail,2022.0
Shenzhen,34591,技术大学,22.701117389726733,114.39542630302168,heavy_rail,2022.0
Shenzhen,34592,石井,22.69451231708534,114.37837255412433,heavy_rail,2022.0
Shenzhen,34593,燕子湖,22.69109698277019,114.37026685418323,heavy_rail,2022.0
Shenzhen,34594,沙壆,22.68910827306695,114.35979034485797,heavy_rail,2022.0
Shenzhen,34595,东纵纪念馆,22.688769003728623,114.35074860492688,heavy_rail,2022.0
Shenzhen,34596,坪环,22.687992401554354,114.34195360893114,heavy_rail,2022.0
Shenzhen,34597,龙园,22.734061415357033,114.26148322935279,heavy_rail,2022.0
Shenzhen,34598,盛平,22.734503818245557,114.24808689655043,heavy_rail,2022.0
Shenzhen,34599,尚景,22.732186405253074,114.2387438813576,heavy_rail,2022.0
Shenzhen,34600,愉园,22.73113779017828,114.21909089918171,heavy_rail,2022.0
Shenzhen,34601,黄阁坑,22.71919970819249,114.21330815444588,heavy_rail,2022.0
Shenzhen,34602,龙城公园,22.706886452053098,114.21353218063052,heavy_rail,2022.0
Shenzhen,34603,大运中心,22.698320686277697,114.21557866819836,heavy_rail,2022.0
Shenzhen,34604,回龙埔,22.73198191230931,114.23099305055877,heavy_rail,2022.0
Shenzhen,34605,人才公园,22.514456777820996,113.93848818977091,heavy_rail,2024.0
Shenzhen,34606,深圳湾口岸,22.506047730692416,113.94533577314729,heavy_rail,2024.0
Shenzhen,34607,后海,22.521627515660867,113.93873484461949,heavy_rail,2024.0
Shenzhen,34608,光明城,22.73564879394914,113.94909929236889,heavy_rail,2024.0
Shenzhen,34609,光明,22.774429245399105,113.94046903136496,heavy_rail,2022.0
Shenzhen,34610,圳美,22.790746340432136,113.94440538817634,heavy_rail,2022.0
Shenzhen,34611,中大,22.798903488582354,113.9461363651194,heavy_rail,2022.0
Shenzhen,34612,深理工,22.81197072213233,113.96562843631358,heavy_rail,2022.0
Shenzhen,34613,光明城,22.735638890878377,113.9493494428811,heavy_rail,2025.0
Shenzhen,34614,上屋,22.690719838142357,113.93461821797712,heavy_rail,2024.0
Shenzhen,34615,左炮台东,22.472592621402953,113.89316615232923,heavy_rail,2022.0
Shenzhen,34616,太子湾,22.47593213629581,113.9064062347602,heavy_rail,2022.0
Shenzhen,34617,海上世界,22.488426584165552,113.90905893466768,heavy_rail,2022.0
Shenzhen,34618,四海,22.5035791256293,113.9171832847299,heavy_rail,2022.0
Shenzhen,34619,花果山,22.49727643357558,113.91418001759894,heavy_rail,2022.0
Shenzhen,34620,南山,22.526758264389713,113.9186432781409,heavy_rail,2022.0
Shenzhen,34621,南光,22.519888418105502,113.91919544073433,heavy_rail,2022.0
Shenzhen,34622,南油,22.513511209402665,113.92129690718212,heavy_rail,2022.0
Shenzhen,34623,桃园,22.534636410541736,113.91994528141379,heavy_rail,2022.0
Shenzhen,34624,灵芝,22.571862937411865,113.89943565375609,heavy_rail,2022.0
Shenzhen,34625,新安公园,22.56558487276523,113.90569204907212,heavy_rail,2022.0
Shenzhen,34626,同乐南,22.559325053747628,113.91385256791176,heavy_rail,2022.0
Shenzhen,34627,中山公园,22.549967464844272,113.9184552976995,heavy_rail,2022.0
Shenzhen,34628,南头古城,22.54027944270203,113.91944913123211,heavy_rail,2022.0
Shenzhen,34629,机场东,22.64984840022713,113.8172739198991,heavy_rail,2022.0
Shenzhen,34630,福永,22.67830159539089,113.80175644631942,heavy_rail,2022.0
Shenzhen,34631,国展,22.698413045298594,113.77350474358332,heavy_rail,2022.0
Shenzhen,34632,国展北,22.70804665130065,113.77200268418892,heavy_rail,2022.0
Shenzhen,34633,海上田园南,22.720746924010598,113.76949730580884,heavy_rail,2022.0
Shenzhen,34634,海上田园东,22.733731688253272,113.77625850710922,heavy_rail,2022.0
Shenzhen,34635,福海西,22.691235033391067,113.78446944907381,heavy_rail,2022.0
Shenzhen,34636,桥头西,22.685580443846874,113.79227931532455,heavy_rail,2022.0
Shenzhen,34637,怀德,22.66916351172432,113.8141836463584,heavy_rail,2022.0
Shenzhen,34638,福围,22.65990899338648,113.81649785448701,heavy_rail,2022.0
Shenzhen,34639,松岗,22.77494446869504,113.82409361908157,heavy_rail,2025.0
Shenzhen,34640,沙浦,22.770307914359762,113.8128261991709,heavy_rail,2025.0
Shenzhen,34641,东角头,22.488831371779185,113.92639829580338,heavy_rail,2025.0
Shenzhen,34642,科苑,22.529803838247844,113.94099779399005,heavy_rail,2024.0
Shenzhen,34643,粤海门,22.535332470361183,113.94076443208337,heavy_rail,2024.0
Shenzhen,34644,深大,22.54103498726279,113.94067313721183,heavy_rail,2024.0
Shenzhen,34645,留仙洞,22.58387795716888,113.93900433121507,heavy_rail,2024.0
Shenzhen,34646,宝田一路,22.597463779591394,113.87392473233257,heavy_rail,2022.0
Shenzhen,34647,流塘,22.58757918320488,113.88377230703236,heavy_rail,2022.0
Shenzhen,34648,上川,22.579959074615914,113.89136743032611,heavy_rail,2022.0
Shenzhen,34649,平峦山,22.605695823181094,113.86571653853491,heavy_rail,2022.0
Shenzhen,34650,钟屋南,22.622217609940307,113.85382068756252,heavy_rail,2022.0
Shenzhen,34651,兴围,22.64555893123807,113.82965714206301,heavy_rail,2022.0
Shenzhen,34652,黄田,22.63971264775634,113.83458934472355,heavy_rail,2022.0
Shenzhen,34653,西乡桃源,22.613891901422917,113.8576758122835,heavy_rail,2022.0
Shenzhen,34654,宝安客运站,22.59243801484527,113.8789326427613,heavy_rail,2022.0
Shenzhen,34655,石岩,22.683161111632216,113.93351799721802,heavy_rail,2024.0
Shenzhen,34658,石鼓,22.577453634003163,113.93910526493164,heavy_rail,2024.0
Shenzhen,34659,高新中,22.550400482888705,113.9403523887429,heavy_rail,2024.0
Shenzhen,34660,高新北,22.560835977135838,113.9406238345145,heavy_rail,2024.0
Shenzhen,34661,西丽高铁站,22.567733471066447,113.94351402378868,heavy_rail,2025.0
Shenzhen,34662,应人石,22.647185419118543,113.92140070463648,heavy_rail,2024.0
Shenzhen,34663,高新中,22.62475462917064,113.93395668161611,heavy_rail,2024.0
Shenzhen,34664,罗租,22.6706677527674,113.92851996294985,heavy_rail,2024.0
Shenzhen,35230,,22.68478964493582,114.35632953368543,people_mover,2022.0
Shenzhen,35231,,22.689978895406014,114.35473740318412,people_mover,2022.0
Shenzhen,35232,,22.694606579112886,114.35347657274616,people_mover,2022.0
Shenzhen,35233,,22.701100033749782,114.34779401045324,people_mover,2022.0
Shenzhen,35234,,22.705517081907843,114.35672766319294,people_mover,2022.0
Shenzhen,35235,,22.711945830800246,114.35633890631595,people_mover,2022.0
Shenzhen,35236,,22.714212516602785,114.35099189509867,people_mover,2022.0
Shenzhen,35237,,22.713642441094066,114.34676848205243,people_mover,2022.0
Shenzhen,35238,,22.711226382845453,114.33568770715613,people_mover,2022.0
Shenzhen,35239,,22.708728902670927,114.32498286770073,people_mover,2022.0
