nodeID,nodeLabel,latitude,longitude,mode,year,line_id
1,Port Klang,2.999438435121942,101.39139250074986,commuter_rail,1995.0,779
2,Jalan Kastam,3.013175214565678,101.40245322326138,commuter_rail,1995.0,779
3,Kampung Raja Uda,3.020242537915983,101.41010196729032,commuter_rail,1995.0,779
4,Teluk Gadong,3.033973476579007,101.42483109308772,commuter_rail,1995.0,779
5,Teluk Pulai,3.040804977224766,101.43217540921188,commuter_rail,1995.0,779
6,Klang,3.043199555934763,101.44971895033842,commuter_rail,1995.0,779
7,Bukit Badak,3.036036499891864,101.47026786841792,commuter_rail,1995.0,779
8,Padang Jawa,3.052340261817861,101.49269977916816,commuter_rail,1995.0,779
9,Shah Alam,3.056470970582623,101.52513110311207,commuter_rail,1995.0,779
10,Batu Tiga,3.075968190853064,101.55973110809572,commuter_rail,1995.0,779
11,Subang Jaya,3.084675855186731,101.58802549460528,commuter_rail,1995.0,779
12,Setia Jaya,3.083155176969868,101.61144500089132,commuter_rail,1995.0,779
13,Seri Setia,3.084534977935093,101.6218938595685,commuter_rail,1995.0,779
14,Kampung Dato Harun,3.084457383875943,101.63230488250514,commuter_rail,1995.0,779
15,Jalan Templer,3.083473666265022,101.65648144048116,commuter_rail,1995.0,779
16,Petaling,3.08621969045113,101.66416805282697,commuter_rail,1995.0,779
17,Pantai Dalam,3.095656080180717,101.67001959142527,commuter_rail,1995.0,779
18,Angkasapuri,3.1132507548391,101.67333021338754,commuter_rail,1995.0,779
19,KL Sentral,3.13469038592343,101.68620960733556,commuter_rail,2001.0,779
19,KL Sentral,3.13469038592343,101.68620960733556,commuter_rail,2001.0,775
20,Kuala Lumpur,3.139613473051924,101.69372349568792,commuter_rail,1995.0,779
20,Kuala Lumpur,3.139613473051924,101.69372349568792,commuter_rail,1995.0,775
21,Bank Negara,3.154400946357839,101.69280587553072,commuter_rail,1995.0,779
21,Bank Negara,3.154400946357839,101.69280587553072,commuter_rail,1995.0,775
22,Putra,3.165288619347958,101.69103716578694,commuter_rail,1995.0,779
22,Putra,3.165288619347958,101.69103716578694,commuter_rail,1995.0,775
23,Segambut,3.186459611799271,101.66420687622968,commuter_rail,2015.0,779
24,Kepong,3.202737018689398,101.63730281635046,commuter_rail,2015.0,779
25,Kepong Sentral,3.208706037928944,101.62851413739688,commuter_rail,2015.0,779
26,Sungai Buloh,3.206221572743964,101.58023770846673,commuter_rail,2015.0,779
27,EcoCity,3.118744248862417,101.67323938427784,commuter_rail,2018.0,779
28,Kuang,3.258224909911704,101.55484545368132,commuter_rail,2015.0,779
29,Rawang,3.318938854760148,101.57479335551318,commuter_rail,2015.0,779
30,Serendah,3.376121693178078,101.61439992024924,commuter_rail,2015.0,779
31,Batang Kali,3.46858400861997,101.63774673870648,commuter_rail,2015.0,779
32,Rasa,3.500173003711254,101.634161276697,commuter_rail,2015.0,779
33,Kuala Khubu Baru,3.553312907718748,101.63948607378812,commuter_rail,2015.0,779
34,Tanjung Malim,3.68493219430647,101.51799313778264,commuter_rail,2015.0,779
35,Sentul,3.182093609598404,101.688644796133,commuter_rail,2015.0,775
36,Sentul,3.182119060807314,101.68865190023544,commuter_rail,1995.0,779
37,Ampang,3.150392731676718,101.76020844271784,light_rail,1996.0,771
38,Cahaya,3.140630801644278,101.75656299200487,light_rail,1996.0,771
39,Cempaka,3.138473918385429,101.75299886463256,light_rail,1996.0,771
40,Pandan Indah,3.13476783698303,101.74667342151928,light_rail,1996.0,771
41,Pandan Jaya,3.130227581421082,101.73892950731994,light_rail,1996.0,771
42,Maluri,3.123254227145665,101.72695644308868,light_rail,1996.0,771
43,Miharja,3.120961670391012,101.71782257824871,light_rail,1996.0,771
44,Chan Sow Lin,3.127797145814228,101.7155683876358,light_rail,1996.0,771
45,Pudu,3.134925518000827,101.71199833471934,light_rail,1996.0,771
46,Hang Tuah,3.139818258074541,101.70626158989243,light_rail,1996.0,771
47,Plaza Rakyat,3.144275458004458,101.70211673655194,light_rail,1996.0,771
48,Masjid Jamek,3.149458189592377,101.69639612500964,light_rail,1996.0,771
49,Bandaraya,3.155594649446132,101.69439457069342,light_rail,1996.0,771
50,Sultan Ismail,3.161242658570686,101.69409468926978,light_rail,1996.0,771
51,PWTC,3.16657094438709,101.69357817504208,light_rail,1998.0,771
51,PWTC,3.16657094438709,101.69357817504208,light_rail,1998.0,772
52,Titiwangsa,3.173543999836156,101.69527091816748,light_rail,1998.0,771
52,Titiwangsa,3.173543999836156,101.69527091816748,light_rail,1998.0,772
53,Sentul,3.178561688120965,101.695472844412,light_rail,1998.0,771
53,Sentul,3.178561688120965,101.695472844412,light_rail,1998.0,772
54,Sentul Timur,3.185915438263123,101.6952891118151,light_rail,1998.0,771
54,Sentul Timur,3.185915438263123,101.6952891118151,light_rail,1998.0,772
55,Cheras,3.112842474800118,101.71433697894264,light_rail,1998.0,772
56,Salak Selatan,3.102098580037605,101.70628819316624,light_rail,1998.0,772
57,Bandar Tun Razak,3.089611936689352,101.71238438773656,light_rail,1998.0,772
58,Bandar Tasik Selatan,3.076059923516098,101.71130814366182,light_rail,1998.0,772
59,Sungai Besi,3.063960999689968,101.70799052043157,light_rail,1998.0,772
60,Bukit Jalil,3.058188862248329,101.69217425020668,light_rail,1998.0,772
61,Sri Petaling,3.061536111220036,101.68709121617916,light_rail,1998.0,772
62,Awan Besar,3.062089370607509,101.6705900634064,light_rail,2015.0,772
63,Muhibbah,3.06196127813277,101.6625050916677,light_rail,2015.0,772
64,Alam Sutera,3.054682942770256,101.65648566504046,light_rail,2015.0,772
65,Kinrara BK5,3.05047010781125,101.64416867204284,light_rail,2015.0,772
66,IOI Puchong Jaya,3.048073350349711,101.62099345803703,light_rail,2016.0,772
67,Pusat Bandar Puchong,3.033236476303998,101.61608570035116,light_rail,2016.0,772
68,Taman Perindustrian Puchong,3.022787628874028,101.61342704149712,light_rail,2016.0,772
69,Bandar Puteri,3.017054117330911,101.61282319381974,light_rail,2016.0,772
70,Puchong Perdana,3.007815542758536,101.60502297721143,light_rail,2016.0,772
71,Puchong Perdana,2.999960057605861,101.59664343149576,light_rail,2016.0,772
72,Putra Heights,2.996003007198041,101.57550334607032,light_rail,2016.0,772
73,Sultan Ismail,3.161236694829583,101.69410194306832,light_rail,1998.0,771
73,Sultan Ismail,3.161236694829583,101.69410194306832,light_rail,1998.0,772
74,Bandaraya,3.155591540589054,101.6944045707149,light_rail,1998.0,771
74,Bandaraya,3.155591540589054,101.6944045707149,light_rail,1998.0,772
75,Masjid Jamek,3.149479870608133,101.69638591561562,light_rail,1998.0,771
75,Masjid Jamek,3.149479870608133,101.69638591561562,light_rail,1998.0,772
76,Plaza Rakyat,3.144266843716636,101.70210007287454,light_rail,1998.0,771
76,Plaza Rakyat,3.144266843716636,101.70210007287454,light_rail,1998.0,772
77,Hang Tuah,3.139802438460421,101.70624423087604,light_rail,1998.0,771
77,Hang Tuah,3.139802438460421,101.70624423087604,light_rail,1998.0,772
78,Pudu,3.134916698354743,101.71198551175792,light_rail,1998.0,771
78,Pudu,3.134916698354743,101.71198551175792,light_rail,1998.0,772
79,Chan Sow Lin,3.127796615367103,101.71558099104648,light_rail,1998.0,771
79,Chan Sow Lin,3.127796615367103,101.71558099104648,light_rail,1998.0,772
80,Kelana Jaya,3.112473739929826,101.60458489048136,light_rail,1998.0,770
81,Taman Bahagia,3.110710873342953,101.61274320167183,light_rail,1998.0,770
82,Taman Paramount,3.104712456517106,101.62316395444742,light_rail,1998.0,770
83,Asia Jaya,3.104377058686296,101.63778101276564,light_rail,1998.0,770
84,Taman Jaya,3.104055023102191,101.6453298945474,light_rail,1998.0,770
85,Universiti,3.114590990329944,101.6617559966976,light_rail,1998.0,770
86,KL Gateway – Universiti,3.114590990329944,101.66177094200016,light_rail,2015.0,770
87,Kerinchi,3.115465631881037,101.6684631137133,light_rail,1998.0,770
88,Abdullah Hukum,3.118724233334731,101.67298241625542,light_rail,1998.0,770
89,Bangsar,3.127501759281799,101.679038984881,light_rail,1998.0,770
90,Bank Rakyat – Bangsar,3.127491810598215,101.67902902135752,light_rail,2015.0,770
91,KL Sentral,3.134126457129383,101.68657723613632,light_rail,2001.0,770
92,Pasar Seni,3.142750511440951,101.69531943436787,light_rail,1998.0,770
93,Masjid Jamek,3.149636808344809,101.69661463603018,light_rail,1999.0,770
94,Dang Wangi,3.156842585311281,101.70197255459794,light_rail,1999.0,770
95,Kampung Baru,3.161395028526456,101.70697235278776,light_rail,1999.0,770
96,KLCC,3.159351814420404,101.71323868534978,light_rail,1999.0,770
97,Ampang Park,3.159841962034867,101.71924546842448,light_rail,1999.0,770
98,Damai,3.164488431179436,101.7244012397618,light_rail,1999.0,770
99,Dato' Keramat,3.165074692661804,101.73184589132076,light_rail,1999.0,770
100,Jelatek,3.167334636960135,101.73531179776876,light_rail,1999.0,770
101,Setiawangsa,3.175721515698811,101.73585196122582,light_rail,1999.0,770
102,Sri Rampai,3.199111304415609,101.73729391084544,light_rail,2010.0,770
103,Wangsa Maju,3.205666006694841,101.73195873704992,light_rail,1999.0,770
104,Taman Melati,3.219535949176105,101.72184291866694,light_rail,1999.0,770
105,Gombak,3.231246053327695,101.72440315916435,light_rail,1999.0,770
106,Lembah Subang,3.112070188347744,101.59120527292224,light_rail,2016.0,770
107,Ara Damansara,3.108604666758495,101.58665000674192,light_rail,2016.0,770
108,CGC-Glenmarie,3.09614152619298,101.5903179845434,light_rail,2016.0,770
109,Subang Jaya,3.084813929140893,101.58789067312487,light_rail,2016.0,770
110,SS15,3.07578902515895,101.58611276319768,light_rail,2016.0,770
111,SS18,3.067155743276449,101.58609898818628,light_rail,2016.0,770
112,USJ 7,3.05488250986317,101.5919917028909,light_rail,2016.0,770
113,Taipan,3.047793545051017,101.59020243247862,light_rail,2016.0,770
114,Wawasan,3.035071051208778,101.5881357697479,light_rail,2016.0,770
115,USJ 21,3.029749412910649,101.58173131544852,light_rail,2016.0,770
116,Alam Megah,3.023140999616811,101.5720834106839,light_rail,2016.0,770
117,Putra Heights,2.99614168762065,101.5755841893095,light_rail,2016.0,770
118,Subang Alam,3.009687587770287,101.57212876529628,light_rail,2016.0,770
119,KLIA2,2.744554703558722,101.6850744761956,heavy_rail,2014.0,778
119,KLIA2,2.744554703558722,101.6850744761956,heavy_rail,2014.0,777
120,KLIA,2.754632347033204,101.70432866666845,heavy_rail,2002.0,778
120,KLIA,2.754632347033204,101.70432866666845,heavy_rail,2002.0,777
121,Salak Tinggi,2.825663403254268,101.71340279131698,heavy_rail,2002.0,777
122,Bandar Tasik Selatan,3.076047010852434,101.71030925801124,heavy_rail,2002.0,777
123,KL Sentral,3.134439204431628,101.6863672105006,heavy_rail,2002.0,778
123,KL Sentral,3.134439204431628,101.6863672105006,heavy_rail,2002.0,777
124,Putrajaya Sentral,2.931389825907033,101.6709584798828,heavy_rail,2002.0,777
125,KL Sentral,3.132647271050156,101.68793073902928,people_mover,2003.0,773
126,Tun Sambanthan,3.131480579439781,101.69087069336685,people_mover,2003.0,773
127,Maharajalela,3.13897932290763,101.6991693644211,people_mover,2003.0,773
128,Hang Tuah,3.140698386073012,101.70602141220807,people_mover,2003.0,773
129,Imbi,3.142806574457069,101.70942540392946,people_mover,2003.0,773
130,AirAsia-Bukit Bintang,3.146043985522226,101.7114691641678,people_mover,2003.0,773
131,Raja Chulan,3.150841640096459,101.710411766856,people_mover,2003.0,773
132,Bukit Nanas,3.156231652657468,101.70477836038911,people_mover,2003.0,773
133,Medan Tuanku,3.159271816556256,101.6988166203293,people_mover,2003.0,773
134,Chow Kit,3.16741858580896,101.69838798875617,people_mover,2003.0,773
135,Titiwangsa,3.173208744669722,101.69595151268794,people_mover,2003.0,773
136,Sunway-Setia Jaya,3.082937075920242,101.61227110695565,brt,2015.0,2122
137,Mentari,3.076101195495326,101.61022529146196,brt,2015.0,2122
138,Sunway Lagoon,3.070704853945017,101.61073718085017,brt,2015.0,2122
139,SunMed,3.065494425452712,101.60858780043748,brt,2015.0,2122
140,SunU-Monash,3.065316715639227,101.60149599658229,brt,2015.0,2122
141,South Quay-USJ1,3.061608697576043,101.59693016373812,brt,2015.0,2122
142,USJ 7,3.055442511916738,101.59209838434674,brt,2015.0,2122
143,Sungai Buloh,3.20631060852557,101.58186944400444,heavy_rail,2016.0,774
143,Sungai Buloh,3.20631060852557,101.58186944400444,heavy_rail,2016.0,2130
144,Kampung Selamat,3.197273148039656,101.5784835404935,heavy_rail,2016.0,774
144,Kampung Selamat,3.197273148039656,101.5784835404935,heavy_rail,2016.0,2130
145,Kwasa Damansara,3.176472018132976,101.57238955299984,heavy_rail,2016.0,774
145,Kwasa Damansara,3.176472018132976,101.57238955299984,heavy_rail,2016.0,2130
146,Kwasa Sentral,3.169864460999477,101.56485107172664,heavy_rail,2016.0,774
147,Kota Damansara,3.150298351471974,101.57859816332342,heavy_rail,2016.0,774
148,Surian,3.149644401164124,101.59367973343728,heavy_rail,2016.0,774
149,Mutiara Damansara,3.155217207685723,101.60867218743164,heavy_rail,2016.0,774
150,Bandar Utama,3.146716526258658,101.61873185701364,heavy_rail,2016.0,774
151,Taman Tun Dr Ismail,3.136161738659993,101.63067936111628,heavy_rail,2016.0,774
152,Phileo Damansara,3.12923937138001,101.64287461754684,heavy_rail,2016.0,774
153,Pavilion Damansara Heights – Pusat Bandar Damansara,3.143272148138623,101.662301015417,heavy_rail,2016.0,774
154,Manulife – Semantan,3.151010332985856,101.66531773008954,heavy_rail,2016.0,774
155,Muzium Negara,3.137363432151929,101.68773776211764,heavy_rail,2017.0,774
156,Pasar Seni,3.142256965997108,101.6958374608539,heavy_rail,2017.0,774
157,Merdeka,3.141986675566943,101.70190430037316,heavy_rail,2017.0,774
158,Pavilion Kuala Lumpur – Bukit Bintang,3.146334927992417,101.71085687599616,heavy_rail,2017.0,774
159,Tun Razak Exchange,3.142924168905598,101.71987357511154,heavy_rail,2017.0,774
160,Cochrane,3.132396993098979,101.723013905252,heavy_rail,2017.0,774
161,AEON – Maluri,3.124121049642355,101.72734674308788,heavy_rail,2017.0,774
162,Taman Pertama,3.112764529831878,101.72929345964354,heavy_rail,2017.0,774
163,Taman Midah,3.104417494239414,101.73223185143178,heavy_rail,2017.0,774
164,Taman Mutiara,3.091382916036721,101.74031545674006,heavy_rail,2017.0,774
165,Taman Connaught,3.079225481105326,101.7452490325739,heavy_rail,2017.0,774
166,Taman Suntex,3.07163152354704,101.7635836230226,heavy_rail,2017.0,774
167,Sri Raya,3.062139801034377,101.7729755031965,heavy_rail,2017.0,774
168,Bandar Tun Hussein Onn,3.048361462566916,101.7751178008782,heavy_rail,2017.0,774
169,Batu 11 Cheras,3.04121453811868,101.77324523131516,heavy_rail,2017.0,774
170,Bukit Dukung,3.026411127169491,101.77118474843148,heavy_rail,2017.0,774
171,Sungai Jernih,3.000791645002304,101.7841007233858,heavy_rail,2017.0,774
172,Stadium Kajang,2.99400231680454,101.78628684370187,heavy_rail,2017.0,774
173,Kajang,2.981744398069836,101.7903107308959,heavy_rail,2017.0,774
174,Terminal Skypark,3.134470735866447,101.55526485321624,commuter_rail,2018.0,2121
175,Subang Jaya,3.084647026849538,101.58802839939136,commuter_rail,2018.0,779
175,Subang Jaya,3.084647026849538,101.58802839939136,commuter_rail,2018.0,2121
176,KL Sentral,3.134665190978249,101.68617179267277,commuter_rail,2018.0,779
176,KL Sentral,3.134665190978249,101.68617179267277,commuter_rail,2018.0,775
176,KL Sentral,3.134665190978249,101.68617179267277,commuter_rail,2018.0,2121
177,Mid Valley,3.118695830865064,101.678945869272,commuter_rail,1995.0,775
178,Seputeh,3.113572475321575,101.68148341865742,commuter_rail,1995.0,775
179,Salak Selatan,3.098254883725815,101.7053341108325,commuter_rail,1995.0,775
180,Bandar Tasik Selatan,3.07608455573795,101.71082848099292,commuter_rail,1995.0,775
181,Serdang,3.023293822697013,101.71590123563492,commuter_rail,1995.0,775
182,Kajang,2.981904130538183,101.7904940481564,commuter_rail,1995.0,775
183,UKM,2.939633615942,101.78790788072727,commuter_rail,1995.0,775
184,Bangi,2.903985891008489,101.78624337628544,commuter_rail,1995.0,775
185,Batang Benar,2.830491386840564,101.82684704493856,commuter_rail,1995.0,775
186,Nilai,2.802143629036337,101.79962139131834,commuter_rail,1995.0,775
187,Labu,2.754050859185952,101.82653543473214,commuter_rail,1995.0,775
188,Tiroi,2.741337111546869,101.8719484596885,commuter_rail,1995.0,775
189,Seremban,2.718767481957968,101.94070870330468,commuter_rail,1995.0,775
190,Batu Kentomen,3.19828007107121,101.68121411403088,commuter_rail,2010.0,779
191,Batu Kentomen,3.198299942548715,101.68123772961786,commuter_rail,2015.0,775
192,Kampung Batu,3.204817677694365,101.6756292003986,commuter_rail,2010.0,779
193,Kampung Batu,3.204809035292541,101.67563945862662,commuter_rail,2015.0,775
194,Taman Wahyu,3.214545323714162,101.67218821982408,commuter_rail,2010.0,779
195,Taman Wahyu,3.214520740644275,101.67218514210168,commuter_rail,2015.0,775
196,Batu Caves,3.237829831755619,101.68118988457746,commuter_rail,2010.0,779
197,Batu Caves,3.237792911684764,101.6811907699518,commuter_rail,2015.0,775
198,Sungai Buloh,3.206199002827018,101.58023120646024,commuter_rail,1995.0,775
199,Kepong Sentral,3.208684716348543,101.62851352641944,commuter_rail,1995.0,775
200,Kepong,3.202704677621625,101.63727574103308,commuter_rail,1995.0,775
201,Segambut,3.186440699519594,101.66419907303036,commuter_rail,1995.0,775
202,Bandar Utama,3.144776172793658,101.61882303989933,light_rail,2024.0,2129
203,Senawang,2.690435132787314,101.97184674713168,commuter_rail,2016.0,775
204,Sungai Gadut,2.660423740321079,101.99620132695212,commuter_rail,2016.0,775
205,Rembau,2.592266983835259,102.09516915626445,commuter_rail,2016.0,775
206,Pulau Sebang,2.463490771046267,102.22623929579665,commuter_rail,2016.0,775
207,Kayu Ara,3.135028133877711,101.616833328427,light_rail,2024.0,2129
208,BU11,3.133423632029874,101.60450569152266,light_rail,2024.0,2129
209,Dataran Prima,3.122810002177204,101.59424291529484,light_rail,2024.0,2129
210,Kelana Indah,3.106634443560722,101.591247876372,light_rail,2024.0,2129
211,Glenmarie,3.09529710214447,101.5887862822855,light_rail,2024.0,2129
212,Persiaran Kerjaya,3.082342595986034,101.56265475718834,light_rail,2024.0,2129
213,Malawati,3.079357152138243,101.54967294032208,light_rail,2024.0,2129
214,Bandar Anggerik,3.069719229743384,101.52132284244276,light_rail,2024.0,2129
215,UiTM,3.062646563676623,101.50183211855476,light_rail,2024.0,2129
216,Seksyen 7,3.067447355608408,101.48699616306531,light_rail,2024.0,2129
217,Bukit Raja,3.062548826902187,101.46575747518489,light_rail,2024.0,2129
218,Pasar Besar Klang,3.06821341428315,101.45071008193896,light_rail,2024.0,2129
219,Jalan Meru,3.059132478674144,101.45191153757816,light_rail,2024.0,2129
220,Klang,3.047361386322649,101.44756281791274,light_rail,2024.0,2129
221,Taman Selatan,3.026299034909641,101.44247754782424,light_rail,2024.0,2129
222,Sri Andalas,3.015754595239088,101.44057701344263,light_rail,2024.0,2129
223,Bukit Tinggi,3.00515094444367,101.4421440863689,light_rail,2024.0,2129
224,Batu Nilam,2.993579281840596,101.44612109108618,light_rail,2024.0,2129
225,Johan Setia,2.976424447507085,101.45917398627569,light_rail,2024.0,2129
226,Tropicana,3.129247583057449,101.5958690733924,light_rail,2024.0,2129
227,Temasya,3.090875672080429,101.57831305775836,light_rail,2024.0,2129
228,Seksyen 2,3.063681703531117,101.51078524431574,light_rail,2021.0,2129
229,Lebuh Keluli,3.06697480722103,101.47706906144651,light_rail,2024.0,2129
230,Bandar Botanik,2.986057177805009,101.45065940414224,light_rail,2024.0,2129
231,Sri Damansara Barat,3.1982976,101.6084026,heavy_rail,2022.0,2130
232,Damansara Damai,3.1998294,101.5929229,heavy_rail,2022.0,2130
233,Kepong Baru,3.2117442,101.6482091,heavy_rail,2022.0,2130
234,Kampung Batu (PY),3.205889,101.6753371,heavy_rail,2022.0,2130
235,Sri Delima,3.2072532,101.6656119,heavy_rail,2022.0,2130
236,Jinjang,3.2096165,101.6559176,heavy_rail,2022.0,2130
237,Sri Damansara Sentral,3.1985883,101.6211352,heavy_rail,2022.0,2130
238,Sri Damansara Timur,3.207665,101.6285337,heavy_rail,2022.0,2130
239,Metro Prima,3.2145991,101.6403808,heavy_rail,2022.0,2130
