nodeID,nodeLabel,latitude,longitude,mode,year,line_id
1,30th Street,39.9548898164887,-75.18351969168421,heavy_rail,1907.0,2970
2,34th Street,39.95586705683328,-75.19148167731021,heavy_rail,1907.0,2970
3,40th Street,39.95716254259554,-75.20197324127523,heavy_rail,1907.0,2970
3,40th Street,39.95716254259554,-75.20197324127523,heavy_rail,1907.0,3289
3,40th Street,39.95716254259554,-75.20197324127523,heavy_rail,1907.0,3290
3,40th Street,39.95716254259554,-75.20197324127523,heavy_rail,1907.0,3291
3,40th Street,39.95716254259554,-75.20197324127523,heavy_rail,1907.0,3292
3,40th Street,39.95716254259554,-75.20197324127523,heavy_rail,1907.0,3293
3,40th Street,39.95716254259554,-75.20197324127523,tram,1907.0,2970
3,40th Street,39.95716254259554,-75.20197324127523,tram,1907.0,3289
3,40th Street,39.95716254259554,-75.20197324127523,tram,1907.0,3290
3,40th Street,39.95716254259554,-75.20197324127523,tram,1907.0,3291
3,40th Street,39.95716254259554,-75.20197324127523,tram,1907.0,3292
3,40th Street,39.95716254259554,-75.20197324127523,tram,1907.0,3293
4,46th Street,39.9586363162021,-75.21402969375406,heavy_rail,1907.0,2970
5,52nd Street,39.960015549450816,-75.2248936468138,heavy_rail,1907.0,2970
6,56th Street,39.96099581336779,-75.23287343648666,heavy_rail,1907.0,2970
7,60th Street,39.96198567345781,-75.24079135910065,heavy_rail,1907.0,2970
8,63rd Street,39.96272850788492,-75.2467701813273,heavy_rail,1907.0,2970
9,Millbourne,39.96442741687875,-75.25237938227617,heavy_rail,1907.0,2970
10,69th Street Transportation Center,39.96251458217668,-75.25911322749165,heavy_rail,1907.0,2970
10,69th Street Transportation Center,39.96251458217668,-75.25911322749165,heavy_rail,1907.0,3351
10,69th Street Transportation Center,39.96251458217668,-75.25911322749165,heavy_rail,1907.0,3352
10,69th Street Transportation Center,39.96251458217668,-75.25911322749165,heavy_rail,1907.0,3229
10,69th Street Transportation Center,39.96251458217668,-75.25911322749165,light_rail,1907.0,2970
10,69th Street Transportation Center,39.96251458217668,-75.25911322749165,light_rail,1907.0,3351
10,69th Street Transportation Center,39.96251458217668,-75.25911322749165,light_rail,1907.0,3352
10,69th Street Transportation Center,39.96251458217668,-75.25911322749165,light_rail,1907.0,3229
11,15th Street,39.95259120383472,-75.1650656340131,heavy_rail,1907.0,2970
11,15th Street,39.95259120383472,-75.1650656340131,heavy_rail,1907.0,3289
11,15th Street,39.95259120383472,-75.1650656340131,tram,1907.0,2970
11,15th Street,39.95259120383472,-75.1650656340131,tram,1907.0,3289
12,13th Street,39.952242284479446,-75.16209006287434,heavy_rail,1908.0,2970
12,13th Street,39.952242284479446,-75.16209006287434,heavy_rail,1908.0,3289
12,13th Street,39.952242284479446,-75.16209006287434,tram,1908.0,2970
12,13th Street,39.952242284479446,-75.16209006287434,tram,1908.0,3289
13,Suburban,39.95407647854449,-75.16688185906607,commuter_rail,1930.0,2980
13,Suburban,39.95407647854449,-75.16688185906607,commuter_rail,1930.0,2974
13,Suburban,39.95407647854449,-75.16688185906607,commuter_rail,1930.0,2981
13,Suburban,39.95407647854449,-75.16688185906607,commuter_rail,1930.0,2973
13,Suburban,39.95407647854449,-75.16688185906607,commuter_rail,1930.0,2982
13,Suburban,39.95407647854449,-75.16688185906607,commuter_rail,1930.0,2986
13,Suburban,39.95407647854449,-75.16688185906607,commuter_rail,1930.0,2989
14,30th St.,39.95661419354053,-75.18242249086528,commuter_rail,1933.0,2980
14,30th St.,39.95661419354053,-75.18242249086528,commuter_rail,1933.0,2981
14,30th St.,39.95661419354053,-75.18242249086528,commuter_rail,1933.0,2973
14,30th St.,39.95661419354053,-75.18242249086528,commuter_rail,1933.0,2974
14,30th St.,39.95661419354053,-75.18242249086528,commuter_rail,1933.0,2982
14,30th St.,39.95661419354053,-75.18242249086528,commuter_rail,1933.0,2986
14,30th St.,39.95661419354053,-75.18242249086528,commuter_rail,1933.0,2989
14,30th St.,39.95661419354053,-75.18242249086528,commuter_rail,1933.0,3410
15,Wynnefield Avenue,39.99037607048447,-75.22565451772334,commuter_rail,1930.0,2980
16,Bala,40.00106656615813,-75.227831347059,commuter_rail,1930.0,2980
17,Cynwyd,40.00671109228472,-75.23184026480958,commuter_rail,1890.0,2980
18,Ivy Ridge,40.03403347053643,-75.23466516220738,commuter_rail,1930.0,2980
19,Manayunk West,40.02819214572074,-75.22796839629397,commuter_rail,1930.0,2980
20,Barmouth,40.01605316723027,-75.22735666796888,commuter_rail,1930.0,2980
21,Temple University,39.981575043069085,-75.14952008502452,commuter_rail,1911.0,2974
21,Temple University,39.981575043069085,-75.14952008502452,commuter_rail,1911.0,2981
21,Temple University,39.981575043069085,-75.14952008502452,commuter_rail,1911.0,2973
21,Temple University,39.981575043069085,-75.14952008502452,commuter_rail,1911.0,2982
21,Temple University,39.981575043069085,-75.14952008502452,commuter_rail,1911.0,2986
21,Temple University,39.981575043069085,-75.14952008502452,commuter_rail,1911.0,2989
22,Jefferson,39.95206187222257,-75.15838157649509,commuter_rail,1984.0,2974
22,Jefferson,39.95206187222257,-75.15838157649509,commuter_rail,1984.0,2981
22,Jefferson,39.95206187222257,-75.15838157649509,commuter_rail,1984.0,2973
22,Jefferson,39.95206187222257,-75.15838157649509,commuter_rail,1984.0,2982
22,Jefferson,39.95206187222257,-75.15838157649509,commuter_rail,1984.0,2986
22,Jefferson,39.95206187222257,-75.15838157649509,commuter_rail,1984.0,2989
23,Penn Medicine,39.947965805970085,-75.1902666380968,commuter_rail,1983.0,2974
23,Penn Medicine,39.947965805970085,-75.1902666380968,commuter_rail,1983.0,2981
23,Penn Medicine,39.947965805970085,-75.1902666380968,commuter_rail,1983.0,2973
24,Eastwick,39.89168949532353,-75.24493660197454,commuter_rail,1985.0,2974
25,Terminal A,39.87598794697129,-75.24640176027667,commuter_rail,1985.0,2974
26,Terminal B,39.87635392807675,-75.24459459914,commuter_rail,1985.0,2974
27,Terminals C & D,39.877231231177234,-75.24158822237673,commuter_rail,1985.0,2974
28,Terminals E & F,39.87908889756366,-75.23997553175795,commuter_rail,1985.0,2974
29,Darby,39.91291960616513,-75.25480421390255,commuter_rail,1928.0,2981
30,Curtis Park,39.90803823637094,-75.26505729092062,commuter_rail,1940.0,2981
31,Sharon Hill,39.90406346684805,-75.27147021074471,commuter_rail,1872.0,2981
32,Folcroft,39.90056084610424,-75.27988540814435,commuter_rail,1928.0,2981
33,Glenolden,39.89622960752658,-75.29018862678197,commuter_rail,1928.0,2981
34,Norwood,39.891266061156415,-75.30203215767904,commuter_rail,1875.0,2981
35,Prospect Park,39.88819359417335,-75.30925821264408,commuter_rail,1928.0,2981
36,Ridley Park,39.88052375149098,-75.32207590788576,commuter_rail,1871.0,2981
37,Crum Lynne,39.87200808708988,-75.33089335856928,commuter_rail,1928.0,2981
38,Eddystone,39.857321528664414,-75.3418721393668,commuter_rail,1902.0,2981
39,Chester Transportation Center,39.84949651866378,-75.36018182510985,commuter_rail,1903.0,2981
40,Lamokin Street,39.84250901109797,-75.37499361732934,commuter_rail,1928.0,2981
41,Highland Park,39.833721777669126,-75.39299613023744,commuter_rail,1928.0,2981
42,Marcus Hook,39.82169560351244,-75.4195880656914,commuter_rail,1893.0,2981
43,Claymont,39.7977118532952,-75.45209990085428,commuter_rail,1928.0,2981
44,Wilmington,39.73700604418795,-75.55105189427175,commuter_rail,1908.0,2981
45,Churchmans Crossing,39.69453535284009,-75.67300438944889,commuter_rail,2000.0,2981
46,Newark,39.67023273909115,-75.75271296053012,commuter_rail,1877.0,2981
47,49th Street,39.94361630243336,-75.21655700985049,commuter_rail,1886.0,2973
48,Angora,39.944954471524994,-75.23835106029755,commuter_rail,1928.0,2973
49,Fernwood-Yeadon,39.93971844169923,-75.25604653758508,commuter_rail,1928.0,2973
50,Lansdowne,39.937356798820105,-75.2710993646442,commuter_rail,1880.0,2973
51,Gladstone,39.93277066985493,-75.28215537480725,commuter_rail,1928.0,2973
52,Clifton-Aldan,39.92670749353701,-75.29030722628117,commuter_rail,1880.0,2973
53,Primos,39.92171435296484,-75.2983478655635,commuter_rail,1928.0,2973
54,Secane,39.915745911681626,-75.30985922869306,commuter_rail,1880.0,2973
55,Morton,39.90807126006055,-75.32838395980333,commuter_rail,1867.0,2973
56,Swarthmore,39.90245599408576,-75.35056298208296,commuter_rail,1880.0,2973
57,Wallingford,39.90370462844518,-75.37152893120228,commuter_rail,1890.0,2973
58,Moylan-Rose Valley,39.905813630098805,-75.38802486449306,commuter_rail,1870.0,2973
59,Media,39.91431888028583,-75.39480321625177,commuter_rail,1928.0,2973
60,Elwyn,39.90771780235991,-75.4114173584497,commuter_rail,1928.0,2973
61,Wawa,39.9012777939368,-75.45994659008149,commuter_rail,1928.0,2973
62,Wawa,39.901259871244434,-75.45995827141516,commuter_rail,2021.0,2973
63,Overbrook,39.98997603603502,-75.24991820312,commuter_rail,1860.0,2982
64,Merion,39.99761886948397,-75.25145601269274,commuter_rail,1915.0,2982
65,Narberth,40.004829975864055,-75.26169946844828,commuter_rail,1915.0,2982
66,Wynnewood,40.00282817026178,-75.27314263790532,commuter_rail,1870.0,2982
67,Ardmore,40.00843288992871,-75.2903271336046,commuter_rail,1870.0,2982
68,Haverford,40.01369438892357,-75.29954745391598,commuter_rail,1880.0,2982
69,Bryn Mawr,40.0220037255794,-75.31599784482437,commuter_rail,1869.0,2982
70,Rosemont,40.02806949727776,-75.32708145807253,commuter_rail,1871.0,2982
71,Villanova,40.038733754553135,-75.34253879003694,commuter_rail,1890.0,2982
72,Radnor,40.044767339838415,-75.35961487494836,commuter_rail,1872.0,2982
73,St. Davids,40.044103787398114,-75.37350419912418,commuter_rail,1890.0,2982
74,Wayne,40.04589971826661,-75.38737106840843,commuter_rail,1884.0,2982
75,Strafford,40.049706891061874,-75.40367810399636,commuter_rail,1883.0,2982
76,Devon,40.04741001238372,-75.42294375661324,commuter_rail,1883.0,2982
77,Berwyn,40.048102751907805,-75.44251349734631,commuter_rail,1884.0,2982
78,Daylesford,40.042962059313055,-75.4607174785178,commuter_rail,1915.0,2982
79,Paoli,40.042921008852346,-75.4837873773484,commuter_rail,1893.0,2982
80,Malvern,40.03650485531668,-75.51545331828224,commuter_rail,1900.0,2982
81,Exton,40.01947808520819,-75.62177345226496,commuter_rail,1981.0,2982
82,Whitford,40.01467113414364,-75.63871065199669,commuter_rail,1880.0,2982
83,Downingtown,40.002135563563286,-75.71039576276672,commuter_rail,1900.0,2982
84,Thorndale,39.99282775698762,-75.76303670351125,commuter_rail,1999.0,2982
85,Coatesville,39.98600819580264,-75.820674482787,commuter_rail,1868.0,2982
86,Parkesburg,39.95933177337622,-75.92234181411851,commuter_rail,1914.0,2982
87,52nd Street,39.97806998622272,-75.22616983386489,commuter_rail,1902.0,2982
88,Zoological Garden,39.9706659821191,-75.19846279546466,commuter_rail,1884.0,2986
89,Engleside,39.97993843882702,-75.18833877815851,commuter_rail,1884.0,2986
90,Ridge Avenue,39.985880469415605,-75.17948160883836,commuter_rail,1884.0,2986
91,22nd Street,39.99194781930533,-75.16784272220313,commuter_rail,1884.0,2986
92,North Philadelphia,39.9973674878311,-75.15650499038382,commuter_rail,1884.0,2986
93,Westmoreland,40.00420541448324,-75.16484719943931,commuter_rail,1884.0,2986
94,Queen Lane,40.02318307735658,-75.17806258415484,commuter_rail,1884.0,2986
95,Chelten Avenue,40.02993748567309,-75.18118927566216,commuter_rail,1884.0,2986
96,Tulpehocken,40.035002145182574,-75.18687830009301,commuter_rail,1884.0,2986
97,Upsal,40.04241500487512,-75.19020536776445,commuter_rail,1884.0,2986
98,Carpenter,40.05102284915967,-75.19165724019693,commuter_rail,1884.0,2986
99,Allen Lane,40.05759997557775,-75.1950323458907,commuter_rail,1884.0,2986
100,St. Martins,40.06582685692226,-75.20452650570768,commuter_rail,1884.0,2986
101,Highland,40.07048694120567,-75.21123000191739,commuter_rail,1884.0,2986
102,Chestnut Hill West,40.076652985507394,-75.20809638268463,commuter_rail,1884.0,2986
103,Trenton Transit Center,40.21901538440642,-74.75334974797744,commuter_rail,1930.0,2989
104,Levittown,40.13997237323349,-74.81731589261176,commuter_rail,1953.0,2989
105,Bristol,40.10500568425349,-74.85465172023815,commuter_rail,1911.0,2989
106,Croydon,40.09359952402352,-74.90663125125836,commuter_rail,1930.0,2989
107,Eddington,40.08294813658466,-74.93381544089657,commuter_rail,1930.0,2989
108,Cornwells Heights,40.07080603315984,-74.95422642275047,commuter_rail,1930.0,2989
109,Torresdale,40.05449694125551,-74.9844851885306,commuter_rail,1930.0,2989
110,Holmesburg Junction,40.03275263308416,-75.02372047093712,commuter_rail,1930.0,2989
111,Tacony,40.02321547532836,-75.03916707408953,commuter_rail,1930.0,2989
112,Wissinoming,40.01461979492768,-75.05598022884568,commuter_rail,1930.0,2989
113,Bridesburg,40.010707051150206,-75.06994953135096,commuter_rail,1930.0,2989
114,Frankford Junction,40.00147779201612,-75.0976986428414,commuter_rail,1930.0,2989
115,North Philadelphia,39.99723589845794,-75.15533844819308,commuter_rail,1930.0,2989
116,North Broad,39.99331920490943,-75.15451743464227,commuter_rail,1929.0,2994
116,North Broad,39.99331920490943,-75.15451743464227,commuter_rail,1929.0,2993
117,Allegheny,40.00378558839387,-75.16543634518041,commuter_rail,1938.0,2994
118,East Falls,40.01143823511899,-75.1919888462727,commuter_rail,1856.0,2994
119,Wissahickon,40.01638112457968,-75.20954613260402,commuter_rail,1933.0,2994
120,Manayunk,40.02672398010364,-75.22486791917049,commuter_rail,1930.0,2994
121,Ivy Ridge,40.034038110954896,-75.2354393074464,commuter_rail,1986.0,2994
122,Shawmont,40.04400206580058,-75.24967902080225,commuter_rail,1834.0,2994
123,Miquon,40.05865438715796,-75.26651644675823,commuter_rail,1910.0,2994
124,Spring Mill,40.07428309799823,-75.2860105953416,commuter_rail,1933.0,2994
125,Conshohocken,40.07207943009894,-75.30844196384355,commuter_rail,1933.0,2994
126,Norristown Transportation Center,40.11270907374626,-75.3441406465792,commuter_rail,1989.0,2994
127,Main Street,40.1170698030669,-75.34872147729538,commuter_rail,1976.0,2994
128,Elm Street,40.12143773771928,-75.34451322722256,commuter_rail,1976.0,2994
129,Wayne Junction,40.02247018254883,-75.1599403197838,commuter_rail,1881.0,2996
129,Wayne Junction,40.02247018254883,-75.1599403197838,commuter_rail,1881.0,2995
129,Wayne Junction,40.02247018254883,-75.1599403197838,commuter_rail,1881.0,2993
129,Wayne Junction,40.02247018254883,-75.1599403197838,commuter_rail,1881.0,2992
129,Wayne Junction,40.02247018254883,-75.1599403197838,commuter_rail,1881.0,2991
130,Fishers,40.03088760224031,-75.15713383131367,commuter_rail,1933.0,2991
131,Wister,40.03615334158937,-75.16129666620046,commuter_rail,1932.0,2991
132,Germantown,40.0377557271909,-75.17183603174597,commuter_rail,1885.0,2991
133,Washington Lane,40.05116487664526,-75.17152939413444,commuter_rail,1933.0,2991
134,Stenton,40.06050898633143,-75.17861652421762,commuter_rail,1933.0,2991
135,Sedgwick,40.06283450719408,-75.18520609473646,commuter_rail,1882.0,2991
136,Mount Airy,40.06532350898945,-75.19110654177435,commuter_rail,1875.0,2991
137,Wyndmoor,40.07372744782543,-75.19712111430523,commuter_rail,1863.0,2991
138,Gravers,40.07750945184557,-75.20193114217186,commuter_rail,1879.0,2991
139,Chestnut Hill East,40.08111897883401,-75.20749252439452,commuter_rail,1872.0,2991
140,Fox Chase,40.076408960837455,-75.08344631296961,commuter_rail,1878.0,2992
141,Ryers,40.06365891916215,-75.08675338077833,commuter_rail,1878.0,2992
142,Cheltenham,40.05814475711796,-75.09259623679755,commuter_rail,1893.0,2992
143,Lawndale,40.05135032848915,-75.1032072852318,commuter_rail,1887.0,2992
144,Olney,40.03338853374751,-75.12251936648595,commuter_rail,1906.0,2992
145,Fern Rock Transportation Center,40.04119501814657,-75.13468341907767,commuter_rail,1956.0,2993
145,Fern Rock Transportation Center,40.04119501814657,-75.13468341907767,commuter_rail,1956.0,2995
145,Fern Rock Transportation Center,40.04119501814657,-75.13468341907767,commuter_rail,1956.0,2996
146,Melrose Park,40.0590548477214,-75.12938274331236,commuter_rail,1931.0,2993
147,Elkins Park,40.071250112744565,-75.12764821688646,commuter_rail,1999.0,2996
147,Elkins Park,40.071250112744565,-75.12764821688646,commuter_rail,1999.0,2995
147,Elkins Park,40.071250112744565,-75.12764821688646,commuter_rail,1999.0,2993
148,Jenkintown-Wyncote,40.093051908532345,-75.13766378212344,commuter_rail,1872.0,2996
148,Jenkintown-Wyncote,40.093051908532345,-75.13766378212344,commuter_rail,1872.0,2995
148,Jenkintown-Wyncote,40.093051908532345,-75.13766378212344,commuter_rail,1872.0,2993
149,Noble,40.104339045605485,-75.12465174442485,commuter_rail,1901.0,2996
150,Rydal,40.1073405817647,-75.1107173132317,commuter_rail,1888.0,2996
151,Meadowbrook,40.11133391065573,-75.0926190804883,commuter_rail,1931.0,2996
152,Bethayres,40.116478293275776,-75.06872141974634,commuter_rail,1876.0,2996
153,Philmont,40.12186133850753,-75.04382121897972,commuter_rail,1913.0,2996
154,Forest Hills,40.12780859134202,-75.02092524074205,commuter_rail,1931.0,2996
155,Somerton,40.1306025852021,-75.01205991862876,commuter_rail,1931.0,2996
156,Trevose,40.14012901817637,-74.98271711843711,commuter_rail,1888.0,2996
157,Neshaminy Falls,40.14686523317337,-74.96204245497786,commuter_rail,1888.0,2996
158,Langhorne,40.16060351883468,-74.91304552001344,commuter_rail,1881.0,2996
159,Woodbourne,40.190775819241736,-74.89095032596185,commuter_rail,1931.0,2996
160,Yardley,40.23477822814891,-74.83142188192154,commuter_rail,1876.0,2996
161,West Trenton,40.25755514442128,-74.81534657195154,commuter_rail,1929.0,2996
162,Glenside,40.10112420804495,-75.15290104819451,commuter_rail,1931.0,2995
162,Glenside,40.10112420804495,-75.15290104819451,commuter_rail,1931.0,2993
163,Ardsley,40.11411446800247,-75.153166757382,commuter_rail,1931.0,2995
164,Roslyn,40.120835036822086,-75.1341976997342,commuter_rail,1931.0,2995
165,Crestmont,40.133253364468885,-75.11869099214351,commuter_rail,1931.0,2995
166,Willow Grove,40.14388377427443,-75.11425089021141,commuter_rail,1886.0,2995
167,Fulmor,40.16589907557133,-75.10484295918467,commuter_rail,1931.0,2995
168,Hatboro,40.17557752449639,-75.1027853142113,commuter_rail,1871.0,2995
169,Warminster,40.195150912713785,-75.0890956844065,commuter_rail,1974.0,2995
170,North Hills,40.11208002019461,-75.169594190677,commuter_rail,1931.0,2993
171,Oreland,40.11822527864862,-75.18384580498733,commuter_rail,1890.0,2993
172,Fort Washington,40.135297957231046,-75.21154152517101,commuter_rail,1903.0,2993
173,Fellwick,40.12460645234884,-75.19914257735304,commuter_rail,1855.0,2993
174,Ambler,40.15285757275646,-75.22436589943595,commuter_rail,1855.0,2993
175,Penllyn,40.16941329256324,-75.24375170523898,commuter_rail,1930.0,2993
176,Gwynedd Valley,40.18489302648709,-75.25699764707139,commuter_rail,1888.0,2993
177,North Wales,40.214355958649406,-75.27726406760951,commuter_rail,1873.0,2993
178,Pennbrook,40.230091795239616,-75.28171918776738,commuter_rail,1931.0,2993
179,Lansdale,40.24303757529512,-75.28537120117721,commuter_rail,1902.0,2993
180,9th Street,40.250270317878005,-75.27889298673486,commuter_rail,2015.0,2993
181,Fortuna,40.25981789228305,-75.26591646463682,commuter_rail,1931.0,2993
182,Colmar,40.26848989129528,-75.25415829996555,commuter_rail,1856.0,2993
183,Link Belt,40.27384759753238,-75.24680776194435,commuter_rail,1952.0,2993
184,Chalfont,40.28785310760273,-75.21124815255939,commuter_rail,1909.0,2993
185,New Britain,40.29749250412152,-75.17968339890692,commuter_rail,1931.0,2993
186,Delaware Valley University,40.297271334166425,-75.16180098005479,commuter_rail,,2993
187,Doylestown,40.30605904910004,-75.13076362333611,commuter_rail,1871.0,2993
188,Parkview,39.96877075026637,-75.27434866917687,heavy_rail,1907.0,3229
189,Township Line Road,39.9746447970098,-75.28143452417027,heavy_rail,1907.0,3229
190,Penfield,39.98101034185774,-75.2840149630427,heavy_rail,1907.0,3229
191,Beechview-Brookline,39.98657288054855,-75.29157057919228,heavy_rail,1907.0,3229
192,Wynnewood Road,39.99352787646177,-75.29839071124304,heavy_rail,1907.0,3229
193,Ardmore Junction,39.99615145280782,-75.30348600138636,heavy_rail,1907.0,3229
194,Ardmore Avenue,39.999943425709375,-75.30941308488121,heavy_rail,1907.0,3229
195,Haverford,40.010040707851374,-75.31533247122451,heavy_rail,1907.0,3229
196,Bryn Mawr,40.018014706911885,-75.32341297590203,heavy_rail,1907.0,3229
197,Roberts Road,40.02145415211342,-75.33030994787026,heavy_rail,1907.0,3229
198,Garrett Hill,40.027853242922845,-75.33631273812863,heavy_rail,1907.0,3229
199,Stadium-Ithan Avenue,40.03269220347261,-75.34078853472762,heavy_rail,1907.0,3229
200,Villanova,40.0340341117076,-75.34402342262665,heavy_rail,1907.0,3229
201,Radnor,40.04205559068106,-75.35362764637414,heavy_rail,1907.0,3229
202,Matsonford,40.05815511387951,-75.33948640436633,heavy_rail,1907.0,3229
203,County Line,40.04985354439094,-75.3474803240755,heavy_rail,1907.0,3229
204,Gulph Mills,40.07120608261343,-75.34254947442561,heavy_rail,1907.0,3229
205,Hughes Park,40.08115598599821,-75.34887330265327,heavy_rail,1907.0,3229
206,DeKalb Street,40.0988620277343,-75.3520521519278,heavy_rail,1907.0,3229
207,Bridgeport,40.104880394694845,-75.34819845851855,heavy_rail,1907.0,3229
208,Norristown Transportation Center,40.11337068227644,-75.34531270687475,heavy_rail,1989.0,3229
209,Trenton,40.21835663217419,-74.75513525285072,light_rail,2004.0,3353
210,Hamilton Avenue,40.21198043319416,-74.75581865910802,light_rail,2004.0,3353
211,Cass Street,40.2054247473441,-74.75434055861808,light_rail,2004.0,3353
212,Bordentown,40.14793880124816,-74.71616986818681,light_rail,2004.0,3353
213,Roebling,40.11691605349856,-74.77023714838268,light_rail,2004.0,3353
214,Florence,40.10006984537793,-74.805062521947,light_rail,2004.0,3353
215,Burlington Towne Centre,40.07738909022322,-74.85937796110802,light_rail,2004.0,3353
216,Burlington South,40.07458329601377,-74.86896024981507,light_rail,2004.0,3353
217,Beverly/Edgewater Park,40.06114695951473,-74.91520959312545,light_rail,2004.0,3353
218,Delanco,40.04809061856693,-74.95032929578053,light_rail,2004.0,3353
219,Riverside,40.03919904191952,-74.95883517972224,light_rail,2004.0,3353
220,Cinnaminson,40.01659941178377,-74.999966084728,light_rail,2004.0,3353
221,Riverton,40.00895023240372,-75.01309263923847,light_rail,2004.0,3353
222,Palmyra,40.004217582036944,-75.02120948312839,light_rail,2004.0,3353
223,Pennsauken-Route 73,39.99344107696436,-75.03911063201754,light_rail,2004.0,3353
224,Pennsauken,39.97810647065728,-75.06227972868693,light_rail,2013.0,3353
225,36th Street,39.9613583674537,-75.07924173550934,light_rail,2004.0,3353
226,Walter Rand Transportation Center/Broadway,39.94315898449986,-75.12030215921064,light_rail,1936.0,3353
226,Walter Rand Transportation Center/Broadway,39.94315898449986,-75.12030215921064,light_rail,1936.0,3354
226,Walter Rand Transportation Center/Broadway,39.94315898449986,-75.12030215921064,light_rail,1936.0,3413
226,Walter Rand Transportation Center/Broadway,39.94315898449986,-75.12030215921064,heavy_rail,1936.0,3353
226,Walter Rand Transportation Center/Broadway,39.94315898449986,-75.12030215921064,heavy_rail,1936.0,3354
226,Walter Rand Transportation Center/Broadway,39.94315898449986,-75.12030215921064,heavy_rail,1936.0,3413
227,Cooper Street-Rutgers University,39.94753808430417,-75.12410626699138,light_rail,2004.0,3353
228,Aquarium,39.94565060308364,-75.12874467928017,light_rail,2004.0,3353
229,Entertainment Center,39.94089917433013,-75.1285314450245,light_rail,2004.0,3353
230,Fairfield Avenue,39.96073459312444,-75.2638025751804,light_rail,1906.0,3351
230,Fairfield Avenue,39.96073459312444,-75.2638025751804,light_rail,1906.0,3352
231,Walnut Street,39.958881813329896,-75.26648794753558,light_rail,1906.0,3351
231,Walnut Street,39.958881813329896,-75.26648794753558,light_rail,1906.0,3352
232,Avon Road,39.95770146484611,-75.26908655111018,light_rail,1906.0,3351
232,Avon Road,39.95770146484611,-75.26908655111018,light_rail,1906.0,3352
233,Hilltop Road,39.95592175599776,-75.2729157683634,light_rail,1906.0,3351
233,Hilltop Road,39.95592175599776,-75.2729157683634,light_rail,1906.0,3352
234,Beverly Boulevard,39.95512498750705,-75.27462552251235,light_rail,1906.0,3351
234,Beverly Boulevard,39.95512498750705,-75.27462552251235,light_rail,1906.0,3352
235,Congress Avenue,39.9530007480497,-75.2791084413666,light_rail,1906.0,3351
235,Congress Avenue,39.9530007480497,-75.2791084413666,light_rail,1906.0,3352
236,Lansdowne Avenue,39.95169552093628,-75.28220888593705,light_rail,1906.0,3351
236,Lansdowne Avenue,39.95169552093628,-75.28220888593705,light_rail,1906.0,3352
237,Drexel Park,39.94982053742393,-75.28687640530337,light_rail,1906.0,3351
237,Drexel Park,39.94982053742393,-75.28687640530337,light_rail,1906.0,3352
238,Irvington Road,39.94877461786257,-75.28910820687645,light_rail,1906.0,3351
238,Irvington Road,39.94877461786257,-75.28910820687645,light_rail,1906.0,3352
239,Drexel Hill Junction,39.94707814817835,-75.29267959850235,light_rail,1906.0,3351
239,Drexel Hill Junction,39.94707814817835,-75.29267959850235,light_rail,1906.0,3352
240,Garrettford,39.94411571937735,-75.29592075843617,light_rail,1906.0,3352
241,Drexel Manor,39.94226644123279,-75.2965580721722,light_rail,1906.0,3352
242,Marshall Road,39.94024599395908,-75.29654861472666,light_rail,1906.0,3352
243,Creek Road,39.935148030840566,-75.29518328151975,light_rail,1906.0,3352
244,Baltimore Pike,39.93127903211186,-75.2929156461088,light_rail,1906.0,3352
245,Penn Street,39.92867506561888,-75.29208353509574,light_rail,1906.0,3352
246,Springfield Road,39.92732252176762,-75.29266492072642,light_rail,1906.0,3352
247,Clifton-Aldan,39.92564003779083,-75.29006658254484,light_rail,1906.0,3352
248,Shisler Avenue,39.92361393321835,-75.29009160453897,light_rail,1906.0,3352
249,Providence Road,39.92172181729239,-75.28861649926058,light_rail,1906.0,3352
250,Magnolia Avenue,39.919469338760166,-75.28687808556751,light_rail,1906.0,3352
251,North Street,39.9176071981268,-75.28558549541746,light_rail,1906.0,3352
252,Bartram Street,39.91462516079477,-75.28425328423663,light_rail,1906.0,3352
253,Andrews Avenue,39.91169156300271,-75.28197957009867,light_rail,1906.0,3352
254,MacDade Boulevard,39.91036324381477,-75.28096725046689,light_rail,1906.0,3352
255,Sharon Hill,39.90669680250008,-75.2782166755528,light_rail,1906.0,3352
256,Huey Avenue,39.94747323474539,-75.29757160502581,light_rail,1913.0,3351
257,School Lane,39.948608399732535,-75.2997084086484,light_rail,1913.0,3351
258,Aronimink,39.94927019711125,-75.3061699654223,light_rail,1913.0,3351
259,Anderson Avenue,39.947851826533366,-75.31284779145905,light_rail,1913.0,3351
260,Drexelbrook,39.94717876084229,-75.3160084133482,light_rail,1913.0,3351
261,Drexeline,39.94483359738442,-75.32150103295814,light_rail,1913.0,3351
262,Scenic Road,39.940859935010565,-75.32591424169749,light_rail,1913.0,3351
263,Springfield Road,39.93425310036727,-75.32966036987432,light_rail,1913.0,3351
264,Saxer Avenue,39.92867825817592,-75.33367830696068,light_rail,1913.0,3351
265,Leamy Avenue,39.92628031301609,-75.33730755204807,light_rail,1913.0,3351
266,Woodland Avenue,39.92469459315234,-75.33971121921702,light_rail,1913.0,3351
267,Thompson Avenue,39.92122592257249,-75.34534655553736,light_rail,1913.0,3351
268,Springfield Mall,39.91807672466592,-75.34908326496131,light_rail,1913.0,3351
269,Paper Mill Road,39.91538559435017,-75.35792563557646,light_rail,1913.0,3351
270,Pine Ridge,39.91503571609982,-75.36999538013845,light_rail,1913.0,3351
271,Beatty Road,39.91618461260549,-75.37690040149222,light_rail,1913.0,3351
272,Providence Road,39.916719685693465,-75.38078902005392,light_rail,1913.0,3351
273,Manchester Avenue,39.91700659881048,-75.38291137000857,light_rail,1913.0,3351
274,Edgemont Street,39.917391579886726,-75.38565280154567,light_rail,1913.0,3351
275,Monroe Street,39.91767919761506,-75.38763443464447,light_rail,1913.0,3351
276,Jackson Street,39.91792796313087,-75.38944737344396,light_rail,1913.0,3351
277,Olive Street,39.91815339097457,-75.39106203896256,light_rail,1913.0,3351
278,Veteran's Square,39.91828806175994,-75.39205018561928,light_rail,1913.0,3351
279,Orange Street,39.91851641600712,-75.39374501187883,light_rail,1913.0,3351
280,Lindenwold,39.833886067100906,-75.00053735692423,heavy_rail,1969.0,3354
280,Lindenwold,39.833886067100906,-75.00053735692423,heavy_rail,1969.0,3410
280,Lindenwold,39.833886067100906,-75.00053735692423,commuter_rail,1969.0,3354
280,Lindenwold,39.833886067100906,-75.00053735692423,commuter_rail,1969.0,3410
281,Ashland,39.85871958069092,-75.00921544282836,heavy_rail,1969.0,3354
282,Woodcrest,39.87029507331772,-75.01124965662804,heavy_rail,1980.0,3354
283,Haddonfield,39.89746007432086,-75.03682072412914,heavy_rail,1969.0,3354
284,Westmont,39.90713179047546,-75.04675534389126,heavy_rail,1969.0,3354
285,Collingswood,39.913610754325504,-75.06450232797766,heavy_rail,1969.0,3354
286,Ferry Avenue,39.92276670149744,-75.091815254008,heavy_rail,1969.0,3354
287,City Hall,39.94565231363944,-75.12110121518212,heavy_rail,1936.0,3354
287,City Hall,39.94565231363944,-75.12110121518212,heavy_rail,1936.0,3413
288,8th Street/8th & Market,39.95113855255895,-75.15357962060011,heavy_rail,1908.0,2970
288,8th Street/8th & Market,39.95113855255895,-75.15357962060011,heavy_rail,1908.0,2972
288,8th Street/8th & Market,39.95113855255895,-75.15357962060011,heavy_rail,1908.0,3354
288,8th Street/8th & Market,39.95113855255895,-75.15357962060011,heavy_rail,1908.0,3413
289,9-10th & Locust,39.94737767438625,-75.1577,heavy_rail,1953.0,3354
289,9-10th & Locust,39.94737767438625,-75.1577,heavy_rail,1953.0,3413
290,12-13th & Locust,39.9479456688843,-75.16237782476108,heavy_rail,1953.0,3354
290,12-13th & Locust,39.9479456688843,-75.16237782476108,heavy_rail,1953.0,3413
291,15-16th Street & Locust,39.94842926678157,-75.16619875577781,heavy_rail,1953.0,3354
291,15-16th Street & Locust,39.94842926678157,-75.16619875577781,heavy_rail,1953.0,3413
292,Franklin Square,39.95487022554897,-75.14980642806823,heavy_rail,1936.0,3354
292,Franklin Square,39.95487022554897,-75.14980642806823,heavy_rail,1936.0,3413
293,Cherry Hill,39.92872201690966,-75.04166824585509,commuter_rail,1994.0,3410
294,Atco,39.78368414040639,-74.90781210263768,commuter_rail,1989.0,3410
295,Hammonton,39.63164479899322,-74.79946477865208,commuter_rail,1989.0,3410
296,Egg Harbor City,39.52641244923964,-74.64808487673905,commuter_rail,1989.0,3410
297,Absecon,39.42387739272809,-74.50163401710974,commuter_rail,1854.0,3410
298,Atlantic City Rail Terminal,39.36316457159742,-74.44106668057766,commuter_rail,1989.0,3410
299,63rd & Girard,39.97024954975242,-75.24425076274714,tram,1903.0,3415
300,63rd & Haverford,39.971838361447,-75.24483651858772,tram,1903.0,3415
301,62nd & Haverford,39.97161824271038,-75.24273825954818,tram,1903.0,3415
302,62nd & Girard,39.97012612516224,-75.2432156063019,tram,1903.0,3415
303,61st & Haverford,39.97100387867661,-75.24101444617312,tram,1903.0,3415
304,61st & Girard,39.96988923831526,-75.24126866838056,tram,1903.0,3415
305,60th & Girard,39.969992833492455,-75.23899773768548,tram,1900.0,3415
306,59th & Girard,39.97016325834716,-75.23734138522286,tram,1900.0,3415
307,57th & Girard,39.97051442724657,-75.2343330745632,tram,1900.0,3415
308,56th & Girard,39.970693828027976,-75.23262354541852,tram,1900.0,3415
309,54th & Girard,39.97114423641651,-75.22879840878008,tram,1900.0,3415
310,52nd & Girard,39.97145723032412,-75.22597832867562,tram,1900.0,3415
311,51st & Girard,39.97193319152143,-75.22359773619044,tram,1900.0,3415
312,49th & Girard,39.97287474670449,-75.21914599453659,tram,1900.0,3415
313,Girard & Lancaster,39.97292368285483,-75.2182557410594,tram,1900.0,3415
313,Girard & Lancaster,39.97292368285483,-75.2182557410594,tram,1900.0,3289
314,Merion & Girard,39.97280914435831,-75.21626462188404,tram,1859.0,3415
315,Belmont & Girard,39.97322284559704,-75.21239325623965,tram,1859.0,3415
316,42nd & Girard,39.97363477853543,-75.20878988957962,tram,1859.0,3415
317,41st & Girard,39.97392137580096,-75.20629443208274,tram,1859.0,3415
318,40th & Girard,39.974123914834365,-75.20446070245663,tram,1859.0,3415
319,39th & Girard,39.97444128771011,-75.20169396157202,tram,1859.0,3415
320,34th & Girard,39.97498627606621,-75.19667377527071,tram,1859.0,3415
321,33rd & Girard,39.975209918387264,-75.18845283312977,tram,1859.0,3415
322,31st & Girard,39.97498357252894,-75.18660941099255,tram,1859.0,3415
323,29th & Girard,39.97458242120831,-75.18347423033026,tram,1859.0,3415
324,28th & Girard,39.97437122746683,-75.18187123958775,tram,1859.0,3415
325,27th & Girard,39.97417601138264,-75.18039524286507,tram,1859.0,3415
326,26th & Girard,39.97400798376484,-75.17906334738686,tram,1859.0,3415
327,26th & Poplar,39.97274831491549,-75.17914513035228,tram,1859.0,3415
328,Poplar & Stillman,39.9725291704261,-75.17801130038471,tram,1859.0,3415
329,25th & Poplar,39.97247692199758,-75.17749996514176,tram,1859.0,3415
330,24th & College,39.97239762149982,-75.17584751565079,tram,1859.0,3415
331,Corinthian & Girard,39.972875663264006,-75.17036226256239,tram,1859.0,3415
332,20th & Girard,39.97269156096999,-75.16896188139833,tram,1859.0,3415
333,19th & Girard,39.97250686722475,-75.16748625356693,tram,1859.0,3415
334,Ridge & Girard,39.972351842978725,-75.16626722961058,tram,1859.0,3415
335,17th & Girard,39.97210487451389,-75.16429849294057,tram,1859.0,3415
336,16th & Girard,39.971890225729766,-75.16264142738795,tram,1859.0,3415
337,Broad & Girard,39.97148609209776,-75.15961215079899,tram,1859.0,3415
338,Girard,39.9714726209443,-75.1594773860832,heavy_rail,1928.0,2971
338,Girard,39.9714726209443,-75.1594773860832,heavy_rail,1928.0,2972
339,12th & Girard,39.97100162772151,-75.15570759765872,tram,1859.0,3415
340,11th & Girard,39.97079137647296,-75.15412187419848,tram,1859.0,3415
341,8th & Girard,39.97050551342085,-75.14998022149656,tram,1859.0,3415
342,7th & Girard,39.970450493875376,-75.1481583613661,tram,1859.0,3415
343,5th & Girard,39.97020674894552,-75.14502216793264,tram,1859.0,3415
344,4th & Girard,39.96996211625142,-75.1430967388697,tram,1859.0,3415
345,3rd & Girard,39.96976616172955,-75.14152208437089,tram,1859.0,3415
346,2nd & Girard,39.96949283003843,-75.13957971031927,tram,1859.0,3415
347,Front & Girard,39.96888729121184,-75.13623526503075,tram,1859.0,3415
348,Girard,39.96901765069558,-75.136202343434,heavy_rail,1922.0,2970
349,City Hall,39.95240476066769,-75.16369393871948,heavy_rail,1928.0,2971
350,Race-Vine,39.95762147400504,-75.16244041817612,heavy_rail,1928.0,2971
351,Spring Garden,39.96232538957037,-75.16144472603399,heavy_rail,1928.0,2971
352,Fairmount,39.96670361109807,-75.1604734556591,heavy_rail,1928.0,2971
352,Fairmount,39.96670361109807,-75.1604734556591,heavy_rail,1928.0,2972
353,Cecil B. Moore,39.97869639198515,-75.15790480379474,heavy_rail,1928.0,2971
354,Susquehanna-Dauphin,39.98711802046176,-75.15605278302036,heavy_rail,1928.0,2971
355,North Philadelphia,39.99408588117558,-75.15453421120354,heavy_rail,1928.0,2971
355,North Philadelphia,39.99408588117558,-75.15453421120354,heavy_rail,1928.0,2972
356,Alleghany,40.001600827857175,-75.15287122895717,heavy_rail,1928.0,2971
357,Erie,40.009486766954296,-75.15116594873516,heavy_rail,1928.0,2971
357,Erie,40.009486766954296,-75.15116594873516,heavy_rail,1928.0,2972
358,Hunting Park,40.01691872702838,-75.14954881019952,heavy_rail,1928.0,2971
359,Wyoming,40.02457458676108,-75.14786329367824,heavy_rail,1928.0,2971
360,Logan,40.0301731781727,-75.14662336866076,heavy_rail,1928.0,2971
361,Olney Transportation Center,40.03906909543901,-75.14469684619165,heavy_rail,1928.0,2971
361,Olney Transportation Center,40.03906909543901,-75.14469684619165,heavy_rail,1928.0,2972
362,Fern Rock Transportation Center,40.04183174376553,-75.13682214851575,heavy_rail,1956.0,2971
362,Fern Rock Transportation Center,40.04183174376553,-75.13682214851575,heavy_rail,1956.0,2972
363,Walnut-Locust,39.94935213682115,-75.1642695012048,heavy_rail,1930.0,2971
364,Lombard-South,39.94364787555648,-75.16551615616807,heavy_rail,1932.0,2971
365,Ellsworth-Federal,39.93615686684515,-75.16714787869385,heavy_rail,1938.0,2971
366,Tasker-Morris,39.929505389472126,-75.1685903518964,heavy_rail,1938.0,2971
367,Snyder,39.924390902853474,-75.16971494467472,heavy_rail,1938.0,2971
368,Oregon,39.91655356174243,-75.17140899379807,heavy_rail,1973.0,2971
369,NRG,39.90542893306588,-75.17381409763354,heavy_rail,1973.0,2971
370,Spring Garden,39.96130330271103,-75.15712702289504,heavy_rail,1932.0,2972
371,Chinatown,39.95553255730468,-75.15302654562024,heavy_rail,1932.0,2972
372,11th Street,39.95175474036142,-75.15831474602759,heavy_rail,1908.0,2970
373,5th Street/Independence Mall,39.95056681754508,-75.1489355542211,heavy_rail,1908.0,2970
374,2nd Street,39.94992894216202,-75.14374718941151,heavy_rail,1908.0,2970
375,Spring Garden,39.960508256612655,-75.14041070672256,heavy_rail,1977.0,2970
376,Fairmount,39.961603197722496,-75.13997789828389,heavy_rail,1922.0,2970
377,Berks,39.97855247347528,-75.1335468790692,heavy_rail,1922.0,2970
378,York-Dauphin,39.98514980638837,-75.13212709054073,heavy_rail,1922.0,2970
379,Huntingdon,39.98884036841997,-75.12731610158126,heavy_rail,1922.0,2970
380,Somerset,39.99162273107004,-75.12228337272735,heavy_rail,1922.0,2970
381,Allegheny,39.99648553880016,-75.11344311783502,heavy_rail,1922.0,2970
382,Tioga,40.00023207913532,-75.10659048554979,heavy_rail,1922.0,2970
383,Erie-Torresdale,40.00601482924717,-75.09608592519264,heavy_rail,1922.0,2970
384,Church,40.0105152025902,-75.08902733060741,heavy_rail,1922.0,2970
385,Arrott Transportation Center,40.0165994196928,-75.08386573815018,heavy_rail,1922.0,2970
386,Frankford Transportation Center,40.02324384058679,-75.07773444108093,heavy_rail,1922.0,2970
387,South Street,39.940993756079,-75.14384380812251,heavy_rail,1908.0,3484
388,Market-Chestnut,39.94777215426768,-75.14236075952358,heavy_rail,1908.0,3484
389,19th Street,39.953402428034,-75.17157389030778,tram,1907.0,3289
390,22nd Street,39.9540322328406,-75.176666881186,tram,1955.0,3289
391,24th Street,39.95430944451405,-75.17883005857271,tram,1907.0,3289
392,33rd Street,39.95551583187461,-75.18943427367424,tram,1955.0,3289
393,36th Street Portal,39.95553530718036,-75.19409969651294,tram,1955.0,3289
394,36th & Market,39.95625538893543,-75.19415989540333,tram,1926.0,3289
395,36th & Lancaster,39.95848745631517,-75.19371242753836,tram,1926.0,3289
396,Powelton & Lancaster,39.95957735445663,-75.1955478325573,tram,1926.0,3289
397,38th & Lancaster,39.96027898561388,-75.19687078451393,tram,1926.0,3289
398,Saunders & Lancaster,39.96131588187603,-75.19888089850173,tram,1926.0,3289
399,Spring Garden & Lancaster,39.96198961842816,-75.20018648935073,tram,1926.0,3289
400,40th & Lancaster,39.963062051397685,-75.20221704665119,tram,1926.0,3289
401,Wallace & Lancaster,39.96396234471496,-75.20363726298181,tram,1926.0,3289
402,41st & Lancaster,39.9651178874868,-75.20550680871675,tram,1926.0,3289
403,42nd & Lancaster,39.96638467990565,-75.20753384279585,tram,1926.0,3289
404,Parrish & Lancaster,39.96768560487661,-75.20963123306458,tram,1926.0,3289
405,Ogden & Lancaster,39.96863807404213,-75.2111612547403,tram,1926.0,3289
406,44th & Lancaster,39.96870931832885,-75.21128801862896,tram,1926.0,3289
407,Westminster & Lancaster,39.96951506885242,-75.21256922048931,tram,1926.0,3289
408,45th & Lancaster,39.96964784053671,-75.21280584640567,tram,1926.0,3289
409,Wyalusing & Lancaster,39.97063943477028,-75.2144622277433,tram,1926.0,3289
410,47th & Lancaster,39.97159462844604,-75.2160380819378,tram,1926.0,3289
411,48th & Lancaster,39.97244036139713,-75.21743046839929,tram,1926.0,3289
412,49th & Lancaster,39.97379577928686,-75.21967572560253,tram,1926.0,3289
413,50th & Lancaster,39.975230135724246,-75.22245496644672,tram,1926.0,3289
414,Bible Way & Lancaster,39.97687779396574,-75.2259924830353,tram,1926.0,3289
415,Lansdowne & Lancaster,39.977347915357456,-75.22746885956731,tram,1926.0,3289
416,54th & Lansdowne,39.97708036673004,-75.22986267175463,tram,1926.0,3289
417,55th & Lansdowne,39.976873971563805,-75.23179293431454,tram,1926.0,3289
418,56th & Lansdowne,39.976662836424936,-75.23368774985458,tram,1926.0,3289
419,57th & Lansdowne,39.97648701725248,-75.23532373462166,tram,1926.0,3289
420,58th & Lansdowne,39.976318842008055,-75.23682504995163,tram,1926.0,3289
421,59th & Lansdowne,39.97612008891127,-75.23856577771153,tram,1926.0,3289
422,60th & Lansdowne,39.97593662402016,-75.24023272454792,tram,1926.0,3289
423,,39.97575698081511,-75.24181384401136,tram,,3289
424,62nd & Lansdowne,39.9755521184554,-75.24357613701534,tram,1926.0,3289
425,63rd & Lansdowne,39.97535328488044,-75.2453524933942,tram,1926.0,3289
426,Jefferson & 63rd,39.97828983108889,-75.2461017348844,tram,1926.0,3289
427,Lebanon & 63rd,39.98076575496779,-75.24656520264935,tram,1926.0,3289
428,Malvern & 63rd,39.983423952754606,-75.24704649444695,tram,1926.0,3289
429,Malvern & 63rd Loop,39.98401632486113,-75.24582449359666,tram,1926.0,3289
430,36th St,39.95388663637951,-75.19463621207855,tram,1955.0,3290
430,36th St,39.95388663637951,-75.19463621207855,tram,1955.0,3291
430,36th St,39.95388663637951,-75.19463621207855,tram,1955.0,3292
430,36th St,39.95388663637951,-75.19463621207855,tram,1955.0,3293
431,37th St,39.95102323223245,-75.19712078416254,tram,1955.0,3290
431,37th St,39.95102323223245,-75.19712078416254,tram,1955.0,3291
431,37th St,39.95102323223245,-75.19712078416254,tram,1955.0,3292
431,37th St,39.95102323223245,-75.19712078416254,tram,1955.0,3293
432,40th St Portal,39.94957129767968,-75.20329192144044,tram,1955.0,3290
432,40th St Portal,39.94957129767968,-75.20329192144044,tram,1955.0,3291
432,40th St Portal,39.94957129767968,-75.20329192144044,tram,1955.0,3292
432,40th St Portal,39.94957129767968,-75.20329192144044,tram,1955.0,3293
433,42nd & Baltimore,39.94978508986202,-75.2071971182794,tram,1892.0,3292
434,43rd & Baltimore,39.94956688053748,-75.20926092355047,tram,1892.0,3292
435,44th & Baltimore,39.949269818394725,-75.21125923379559,tram,1892.0,3292
436,45th & Baltimore,39.94907983616338,-75.21294440857375,tram,1892.0,3292
437,46th & Baltimore,39.94885729327649,-75.21502352053761,tram,1892.0,3292
438,47th & Baltimore,39.94863276741293,-75.21710070121192,tram,1892.0,3292
439,48th & Baltimore,39.948404786492574,-75.21922294000946,tram,1892.0,3292
440,49th & Baltimore,39.94818371342046,-75.22126407416616,tram,1892.0,3292
441,50th & Baltimore,39.94796659274576,-75.22331985758544,tram,1892.0,3292
442,51st & Baltimore,39.94776969770672,-75.22540327373771,tram,1892.0,3292
443,Broomall & Baltimore,39.94778696916569,-75.22759760559427,tram,1892.0,3292
444,53rd & Baltimore,39.94779727227487,-75.22949494338883,tram,1892.0,3292
445,54th & Baltimore,39.94781108938872,-75.23133588915015,tram,1892.0,3292
446,55th & Baltimore,39.94735799085643,-75.23362976624998,tram,1892.0,3292
447,56th & Baltimore,39.94684675046392,-75.23574299344189,tram,1892.0,3292
448,57th & Baltimore,39.94635623241573,-75.23795084276996,tram,1892.0,3292
449,58th & Baltimore,39.94591738056778,-75.24014124005416,tram,1892.0,3292
450,59th & Baltimore,39.94531976908644,-75.24182641481124,tram,1892.0,3292
451,60th & Baltimore,39.944393979074334,-75.24433615371966,tram,1892.0,3292
452,61st St Angora Loop & Baltimore,39.94380170188674,-75.24659249502108,tram,1892.0,3292
453,Filbert & 40th,39.95799105140867,-75.20186349922668,tram,1926.0,3289
454,42nd & Chester,39.94849520697957,-75.20708452685655,tram,1956.0,3291
455,43rd & Chester,39.94841497255007,-75.20904517347219,tram,1956.0,3291
456,46th & Chester,39.94782375956271,-75.21139148761746,tram,1956.0,3291
457,46th & Chester,39.94691176660214,-75.21268573467566,tram,1956.0,3291
458,47th & Chester,39.94598709465694,-75.21398548920293,tram,1956.0,3291
459,48th & Chester,39.94507266699704,-75.21529753717549,tram,1956.0,3291
460,49th & Chester,39.94417978635824,-75.21656296829869,tram,1956.0,3291
461,51st & Chester,39.94243040478728,-75.21902981762167,tram,1956.0,3291
462,52nd & Chester,39.94161498653534,-75.22019770148319,tram,1956.0,3291
463,53rd & Chester,39.940659363821936,-75.22153046287112,tram,1956.0,3291
464,54th & Chester,39.93967431254421,-75.22294908355414,tram,1956.0,3291
465,55th & Chester,39.938718836578005,-75.22428700291438,tram,1956.0,3291
466,56th & Chester,39.937751702246686,-75.22564584426554,tram,1956.0,3291
467,57th & Chester,39.93670240704989,-75.22715195916855,tram,1956.0,3291
468,59th & Chester,39.93574102746712,-75.22854339530498,tram,1956.0,3291
469,59th & Chester,39.93476148878247,-75.2299384012786,tram,1956.0,3291
470,Chester & 60th,39.933671111694025,-75.23145216147066,tram,1956.0,3291
471,60th & Kingsessing,39.932563130012255,-75.23033595443474,tram,1956.0,3291
472,61st & Kingsessing,39.93110924329963,-75.23234665609822,tram,1956.0,3291
473,62nd & Kingsessing,39.93003046372664,-75.23386779151097,tram,1956.0,3291
474,Mount Moriah,39.92900735645807,-75.23532611350568,tram,1956.0,3291
475,65th & Kingsessing,39.927886166300766,-75.23697125848479,tram,1956.0,3291
476,Chester & 65th,39.92875076993403,-75.23849381241251,tram,1956.0,3291
477,Belmar & 65th,39.92903755525987,-75.24091794075248,tram,1956.0,3291
478,Windsor & 65th,39.92928978720218,-75.24224265032545,tram,1956.0,3291
479,Cobbs Creek & 65th,39.92951738592888,-75.24341752578609,tram,1956.0,3291
480,65th & Chester,39.92951388336755,-75.24468235129298,tram,1956.0,3291
481,Church & Chester,39.92649560297224,-75.2461173912134,tram,1956.0,3291
482,Yeadon & Chester,39.92613857918394,-75.24740596453015,tram,1956.0,3291
483,Duncan & Chester,39.92567809340602,-75.24906791133417,tram,1956.0,3291
484,Stetser & Chester,39.92519356560254,-75.2507532597765,tram,1956.0,3291
485,Yeadon Loop,39.92464681940999,-75.252442216593,tram,1956.0,3291
486,Alfred & Chester,39.923776436121614,-75.25423583584363,tram,1956.0,3291
487,Cedar & Chester,39.92296461507601,-75.25596655050475,tram,1956.0,3291
488,Cedar & 9th,39.92263310864769,-75.2559904945567,tram,1956.0,3291
489,Mulberry & 10th,39.92353348573701,-75.25738586686563,tram,1956.0,3291
490,Summit & 9th,39.92215064782325,-75.25745207652466,tram,1956.0,3291
491,Wycombe & 10th,39.92298625944713,-75.25853565557605,tram,1956.0,3291
492,Summit & 9th,39.921421649636784,-75.25891096260719,tram,1956.0,3291
493,Ridge & 10th,39.9212260709069,-75.2614563141675,tram,1956.0,3291
494,Ridge & 9th,39.92004151603575,-75.26046030704583,tram,1956.0,3291
495,Main & 10th,39.92001664614935,-75.26314934638822,tram,1956.0,3291
496,Darby Transportation Center,39.91880254791414,-75.26248053002809,tram,1956.0,3291
496,Darby Transportation Center,39.91880254791414,-75.26248053002809,tram,1956.0,3290
497,Chester & Woodland,39.94858581417327,-75.20491212236676,tram,1896.0,3290
497,Chester & Woodland,39.94858581417327,-75.20491212236676,tram,1896.0,3291
497,Chester & Woodland,39.94858581417327,-75.20491212236676,tram,1896.0,3293
498,41st & Woodland,39.94809103491119,-75.20565104657989,tram,1896.0,3290
498,41st & Woodland,39.94809103491119,-75.20565104657989,tram,1896.0,3293
499,42nd & Woodland,39.946841842410976,-75.20698597235425,tram,1896.0,3290
499,42nd & Woodland,39.946841842410976,-75.20698597235425,tram,1896.0,3293
500,43rd & Woodland,39.94568103076136,-75.2083325445917,tram,1896.0,3290
500,43rd & Woodland,39.94568103076136,-75.2083325445917,tram,1896.0,3293
501,45th & Woodland,39.94544920469116,-75.20859436706475,tram,1896.0,3290
501,45th & Woodland,39.94544920469116,-75.20859436706475,tram,1896.0,3293
502,46th & Woodland,39.94444128478969,-75.2097528747236,tram,1896.0,3290
502,46th & Woodland,39.94444128478969,-75.2097528747236,tram,1896.0,3293
503,47th & Woodland,39.94333379424134,-75.21085062729932,tram,1896.0,3290
503,47th & Woodland,39.94333379424134,-75.21085062729932,tram,1896.0,3293
504,Woodland & 48th,39.94207287348385,-75.21172868312605,tram,1896.0,3290
504,Woodland & 48th,39.94207287348385,-75.21172868312605,tram,1896.0,3293
505,49th & Woodland,39.9409265925502,-75.21252754769215,tram,1896.0,3290
505,49th & Woodland,39.9409265925502,-75.21252754769215,tram,1896.0,3293
506,50th & Woodland,39.93997660012246,-75.2138735364177,tram,1896.0,3290
507,51st & Woodland,39.93911386091997,-75.21512370204219,tram,1896.0,3290
508,52nd & Woodland,39.938316525651686,-75.2162594953045,tram,1896.0,3290
509,53rd & Woodland,39.93734781768535,-75.21765328988313,tram,1896.0,3290
510,54th & Woodland,39.93639282217436,-75.21901503562943,tram,1896.0,3290
511,55th & Woodland,39.93542862895302,-75.22039052548746,tram,1896.0,3290
512,56th & Woodland,39.93447147521283,-75.22176512506913,tram,1896.0,3290
513,57th & Woodland,39.9334077614441,-75.22325824458851,tram,1896.0,3290
514,58th & Woodland,39.93242335028117,-75.22461402046333,tram,1896.0,3290
515,60th & Woodland,39.93030611155905,-75.22759055920498,tram,1896.0,3290
516,61st & Woodland,39.929173722511536,-75.22920220975016,tram,1896.0,3290
517,62nd & Woodland,39.9281167214767,-75.23073865468102,tram,1896.0,3290
518,64th & Woodland,39.92645420022399,-75.23310023063809,tram,1896.0,3290
519,65th & Woodland,39.92557960942108,-75.23434081005139,tram,1896.0,3290
520,66th & Woodland,39.92471793818237,-75.23559527363766,tram,1896.0,3290
521,67th & Woodland,39.92378812612816,-75.23690705309619,tram,1896.0,3290
522,68th & Woodland,39.92271654220633,-75.23840880713384,tram,1896.0,3290
523,69th & Woodland,39.92155814448557,-75.24005856021532,tram,1896.0,3290
524,70th & Woodland,39.92059669287099,-75.24142972693788,tram,1896.0,3290
525,71st & Woodland,39.9195029511711,-75.24299624312951,tram,1896.0,3290
526,72nd & Woodland,39.91863696949184,-75.24423134729959,tram,1896.0,3290
527,Island & Woodland,39.91723011668216,-75.2462980067731,tram,1896.0,3290
528,Front & Main,39.91642493687041,-75.2489916370873,tram,1896.0,3290
529,2nd & Main,39.91662066572482,-75.25041886206039,tram,1896.0,3290
530,3rd & Main,39.916887752478914,-75.25165073566356,tram,1896.0,3290
531,4th & Main,39.917148160929685,-75.2528347272615,tram,1896.0,3290
532,5th & Main,39.91748535519082,-75.25441573744547,tram,1896.0,3290
533,6th & Main,39.91775577710752,-75.25559102321239,tram,1896.0,3290
534,Summit & Main,39.91811898332341,-75.25715807084782,tram,1896.0,3290
535,Mill & Main,39.91814788561743,-75.2598537633897,tram,1896.0,3290
536,Powell & Main,39.91820464038437,-75.26071128672733,tram,1896.0,3290
537,49th & Paschall,39.93985372576543,-75.2113941983857,tram,1904.0,3293
538,49th & Grays,39.93867531323957,-75.21031495245168,tram,1904.0,3293
539,51st & Grays,39.93706631909288,-75.21230980805143,tram,1904.0,3293
