nodeID,nodeLabel,latitude,longitude,mode,year,line_id
1,稲荷町 Inaricho,35.71133904555422,139.78256891161584,heavy_rail,1927.0,324
2,田原町 Tawaramachi,35.709858847769056,139.79046520254624,heavy_rail,1927.0,324
3,浅草 Asakusa,35.71076761827913,139.79775499688083,heavy_rail,1927.0,324
4,上野 Ueno,35.71170503318614,139.77614714682414,heavy_rail,1927.0,324
5,末広町 Suehirocho,35.70293589727085,139.77167686395453,heavy_rail,1930.0,324
6,神田 Kanda,35.694270341274084,139.77066577886103,heavy_rail,1931.0,324
7,三越前 Mitsukoshimae,35.68683565455697,139.77372175863323,heavy_rail,1932.0,324
8,日本橋 Nihombashi,35.682035642661546,139.77337720842553,heavy_rail,1932.0,324
9,京橋 Kyobashi,35.676723522726824,139.77006396503478,heavy_rail,1932.0,324
10,銀座 Ginza,35.67145435791647,139.76528396501766,heavy_rail,1934.0,324
11,新橋 Shimbashi,35.66727572006008,139.75866284984417,heavy_rail,1934.0,324
12,表参道 Omote-sando,35.6651656417405,139.71250134109013,heavy_rail,1978.0,324
12,表参道 Omote-sando,35.6651656417405,139.71250134109013,heavy_rail,1978.0,330
12,表参道 Omote-sando,35.6651656417405,139.71250134109013,heavy_rail,1978.0,328
13,外苑前 Gaienmae,35.67051982247749,139.71803323561832,heavy_rail,1938.0,324
14,青山一丁目 Aoyama-Itchome,35.672718790871606,139.72407566481752,heavy_rail,1938.0,324
14,青山一丁目 Aoyama-Itchome,35.672718790871606,139.72407566481752,heavy_rail,1938.0,330
14,青山一丁目 Aoyama-Itchome,35.672718790871606,139.72407566481752,heavy_rail,1938.0,336
15,虎ノ門 Toranomon,35.67014198638327,139.75009758531448,heavy_rail,1939.0,324
16,溜池山王 Tameike-Sanno,35.671910148285555,139.74140242864962,heavy_rail,1997.0,324
16,溜池山王 Tameike-Sanno,35.671910148285555,139.74140242864962,heavy_rail,1997.0,331
17,新大塚 Shin-Otsuka,35.725777550344546,139.72992698252588,heavy_rail,1954.0,325
18,後楽園 Korakuen,35.70733913070652,139.75123548653713,heavy_rail,1954.0,325
19,御茶ノ水 Ochanomizu,35.70033510535333,139.76472258538357,heavy_rail,1954.0,325
20,淡路町 Awajicho,35.69511884966963,139.7674767903513,heavy_rail,1956.0,325
21,大手町 Otemachi,35.68676815419832,139.76626157423752,heavy_rail,1956.0,325
22,東京駅 Tokyoeki (Tokyo Railway Station),35.68204935131473,139.76479985947196,heavy_rail,1956.0,325
23,本郷三丁目 Hongo-Sanchome,35.70704029072189,139.75941433139383,heavy_rail,1954.0,325
24,銀座 Ginza,35.67299036734945,139.76380019387304,heavy_rail,1957.0,325
25,霞ケ関 Kasumigaseki,35.674190680895215,139.75285134109012,heavy_rail,1958.0,325
26,国会議事堂前 Kokkai-Gijido-mae,35.67502787529346,139.7460400052169,heavy_rail,1959.0,325
27,赤坂見附 Akasaka-Mitsuke,35.676803824951946,139.73724988592653,heavy_rail,1959.0,325
27,赤坂見附 Akasaka-Mitsuke,35.676803824951946,139.73724988592653,heavy_rail,1959.0,324
28,四ツ谷 Yotsuya,35.68468894848684,139.72995738196255,heavy_rail,1959.0,325
29,四谷三丁目 Yotsuya-Sanchome,35.68798829651335,139.7205568521265,heavy_rail,1959.0,325
30,新宿御苑前 Shinjuku-Gyoem-mae,35.68858307093706,139.71070133389367,heavy_rail,1959.0,325
31,新宿三丁目 Shinjuku-sanchome,35.691221784543885,139.70407176454003,heavy_rail,1959.0,325
32,新宿 Shinjuku,35.69219590134726,139.70026944796973,heavy_rail,1959.0,325
33,中野坂上 Nakano-sakaue,35.69712904702489,139.68162916181652,heavy_rail,1961.0,325
34,新中野 Shin-nakano,35.69746990405226,139.6690457544172,heavy_rail,1961.0,325
35,新高円寺 Shin-koenji,35.6978808161981,139.6488633823169,heavy_rail,1961.0,325
36,南阿佐ケ谷 Minami-asagaya,35.69947283265044,139.63552746255638,heavy_rail,1961.0,325
37,荻窪 Ogikubo,35.704345654797365,139.61975731780277,heavy_rail,1962.0,325
38,中野新橋	 Nakano-shimbashi,35.69200136094283,139.6737481381139,heavy_rail,1961.0,325
39,中野富士見町 Nakano-fujimicho,35.69063293598148,139.6672618547474,heavy_rail,1961.0,325
40,方南町 Honancho,35.683462526381426,139.65743695447148,heavy_rail,1962.0,325
41,東高円寺 Higashi-koenji,35.698005542556004,139.65785944559457,heavy_rail,1964.0,325
42,西新宿 Nishi-shinjuku,35.69443258676499,139.6927721792906,heavy_rail,1996.0,325
43,押上 Oshiage (Skytree),35.71086033565497,139.8132001093601,heavy_rail,1960.0,333
43,押上 Oshiage (Skytree),35.71086033565497,139.8132001093601,heavy_rail,1960.0,427
44,本所吾妻橋 Honjo-Azumabashi,35.70864203549693,139.804338413403,heavy_rail,1960.0,333
45,浅草 Asakusa,35.708911769568246,139.796376814879,heavy_rail,1960.0,333
46,蔵前 Kuramae,35.70324707913884,139.79096234193403,heavy_rail,1960.0,333
47,浅草橋 Asakusabashi,35.69753561952939,139.78642490402908,heavy_rail,1960.0,333
48,東日本橋 Higashi-nihombashi,35.692117549309856,139.78487815596907,heavy_rail,1962.0,333
49,日本橋 Nihombashi,35.681392612036355,139.77557322991342,heavy_rail,1963.0,333
50,宝町 Takaracho,35.675475236812105,139.77191946660136,heavy_rail,1963.0,333
51,	新橋 Shimbashi,35.665849885232014,139.75973577120786,heavy_rail,1963.0,333
52,大門 Daimon,35.656613727869164,139.75466562849843,heavy_rail,1964.0,333
53,三田 Mita,35.64709910552499,139.74771690334146,heavy_rail,1968.0,333
54,泉岳寺 Sengakuji,35.63852054496506,139.73984865889275,heavy_rail,1968.0,333
54,泉岳寺 Sengakuji,35.63852054496506,139.73984865889275,heavy_rail,1968.0,423
55,高輪台 Takanawadai,35.63177349115633,139.7304366662761,heavy_rail,1968.0,333
56,五反田 Gotanda,35.62711571003345,139.7242649916962,heavy_rail,1968.0,333
57,戸越 Togoshi,35.61450555411592,139.71639468664452,heavy_rail,1968.0,333
58,中延 Nakanobu,35.60523519963971,139.71364467130567,heavy_rail,1968.0,333
59,馬込 Magome,35.596251800516576,139.71182677756656,heavy_rail,1968.0,333
60,西馬込 Nishi-magome,35.58711743814431,139.70615434817202,heavy_rail,1968.0,333
61,南千住 Minami-Senju,35.73232444187404,139.79877703272862,heavy_rail,1961.0,326
62,三ノ輪 Minowa,35.72954090851795,139.79128162561372,heavy_rail,1961.0,326
63,入谷 Iriya,35.72081912570542,139.78466670614836,heavy_rail,1961.0,326
64,仲御徒町 Naka-Okachimachi,35.706574617698884,139.77619109611905,heavy_rail,1961.0,326
65,秋葉原 Akihabara,35.69795145803067,139.7754963770096,heavy_rail,1962.0,326
66,小伝馬町 Kodemmacho,35.69072264779439,139.77847324340786,heavy_rail,1962.0,326
67,人形町 Ningyocho,35.68632435710449,139.78228731780268,heavy_rail,1962.0,326
67,人形町 Ningyocho,35.68632435710449,139.78228731780268,heavy_rail,1962.0,333
68,茅場町 Kayabacho,35.679151823928855,139.7796722759184,heavy_rail,1963.0,326
69,八丁堀 Hatchobori,35.67533208869938,139.7772875222916,heavy_rail,1963.0,326
70,築地 Tsukiji,35.66810274382861,139.7726154809853,heavy_rail,1963.0,326
71,東銀座 Higashi-ginza,35.66961836574118,139.76705469387517,heavy_rail,1963.0,326
71,東銀座 Higashi-ginza,35.66961836574118,139.76705469387517,heavy_rail,1963.0,333
72,北千住 Kita-Senju,35.74963045638729,139.8054583110202,heavy_rail,1962.0,326
73,銀座 Ginza,35.67190612006572,139.7641337982902,heavy_rail,1964.0,326
74,日比谷 Hibiya,35.674442298074894,139.76035917780803,heavy_rail,1964.0,326
75,霞ケ関 Kasumigaseki,35.67386715877136,139.75100255844418,heavy_rail,1964.0,326
76,神谷町 Kamiyacho,35.66285148661614,139.74493486995394,heavy_rail,1964.0,326
77,六本木 Roppongi,35.662865912671464,139.73144320945454,heavy_rail,1964.0,326
78,広尾 Hiro-o,35.651696898172354,139.7222157681867,heavy_rail,1964.0,326
79,恵比寿 Ebisu,35.647106626867135,139.7087712338093,heavy_rail,1964.0,326
80,高田馬場 Takadanobaba,35.71336605271385,139.70501748543256,heavy_rail,1964.0,327
81,神楽坂 Kagurazaka,35.703907410164284,139.73424220266878,heavy_rail,1964.0,327
82,飯田橋 Iidabashi,35.70170862012494,139.74600709402932,heavy_rail,1964.0,327
83,九段下 Kudanshita,35.69544416072954,139.75137502325708,heavy_rail,1964.0,327
83,九段下 Kudanshita,35.69544416072954,139.75137502325708,heavy_rail,1964.0,330
83,九段下 Kudanshita,35.69544416072954,139.75137502325708,heavy_rail,1964.0,335
84,落合 Ochiai,35.71064562166516,139.6859069813614,heavy_rail,1966.0,327
85,竹橋 Takebashi,35.69029770678828,139.75821111814207,heavy_rail,1966.0,327
86,大手町 Otemachi,35.685028933757465,139.76448997688237,heavy_rail,1966.0,327
87,日本橋 Nihombashi,35.682114273693536,139.77473568657254,heavy_rail,1967.0,327
88,茅場町 Kayabacho,35.68034061454062,139.77915194946806,heavy_rail,1967.0,327
89,門前仲町 Monzen-Nakacho,35.67238490259975,139.79486715015582,heavy_rail,1967.0,327
89,門前仲町 Monzen-Nakacho,35.67238490259975,139.79486715015582,heavy_rail,1967.0,336
90,木場 Kiba,35.669368671471254,139.80661570875773,heavy_rail,1967.0,327
91,東陽町 Toyocho,35.66960419989107,139.8175597931979,heavy_rail,1967.0,327
92,南砂町 Minami-Sunamachi,35.66834558379992,139.83187368804474,heavy_rail,1969.0,327
93,西葛西 Nishi-Kasai,35.66457377511623,139.85930142666908,heavy_rail,1979.0,327
94,葛西 Kasai,35.6636309901757,139.87256936804488,heavy_rail,1969.0,327
95,浦安 Urayasu,35.665930131631654,139.8931920777083,heavy_rail,1969.0,327
96,南行徳 Minami-Gyotoku,35.67261122564815,139.9021279883392,heavy_rail,1981.0,327
97,行徳 Gyotoku,35.68260845779877,139.91417475962643,heavy_rail,1969.0,327
98,妙典 Myoden,35.6909525868778,139.92423033525975,heavy_rail,2000.0,327
99,原木中山 Baraki-Nakayama,35.70310912076162,139.9416159183916,heavy_rail,1969.0,327
100,巣鴨 Sugamo,35.734059292735914,139.7379025658147,heavy_rail,1968.0,334
101,西巣鴨 Nishi-Sugamo,35.743787075763095,139.7285159481589,heavy_rail,1968.0,334
102,新板橋 Shin-Itabashi,35.748879115791226,139.71993916181657,heavy_rail,1968.0,334
103,板橋区役所前 Itabashi-Kyuakusho-mae,35.751324490477614,139.71020608603845,heavy_rail,1968.0,334
104,板橋本町 Itabashi-Honcho,35.76133317348183,139.7055795662465,heavy_rail,1968.0,334
105,本蓮沼 Motohasunuma,35.768641306117146,139.7023896199454,heavy_rail,1968.0,334
106,志村坂上 Shimura-Sakaue,35.7758272429405,139.69532392665909,heavy_rail,1968.0,334
107,志村三丁目 Shimura-Sanchome,35.777484083983964,139.68590420320098,heavy_rail,1968.0,334
108,蓮根 Hasune,35.78417013599254,139.67904088925673,heavy_rail,1968.0,334
109,西台 Nishidai,35.78706892370289,139.6727995321304,heavy_rail,1968.0,334
110,高島平 Takashimadaira,35.788918332668786,139.66123973227928,heavy_rail,1968.0,334
111,春日 Kasuga,35.70921904097943,139.75338730244107,heavy_rail,1972.0,334
112,水道橋 Suidobashi,35.70321012594836,139.75518611273685,heavy_rail,1972.0,334
113,大手町 Otemachi,35.68459518356425,139.7628502253398,heavy_rail,1972.0,334
114,日比谷 Hibiya,35.67626403260787,139.76010872224165,heavy_rail,1972.0,334
115,内幸町 Uchisaiwaicho,35.6701148124698,139.7557689151681,heavy_rail,1973.0,334
116,御成門 Onarimon,35.66062730127872,139.7512870038357,heavy_rail,1973.0,334
117,芝公園 Shibakoen,35.65360810616951,139.74976741045737,heavy_rail,1973.0,334
118,三田 Mita,35.64835112796688,139.74889885601934,heavy_rail,1973.0,334
119,新高島平 Shin-Takashimadaira,35.79026022829555,139.6541897251899,heavy_rail,1976.0,334
120,西高島平 Nishi-Takashimadaira,35.7918877006865,139.6458943529537,heavy_rail,1976.0,334
121,町屋 Machiya,35.74182040756391,139.77991051173592,heavy_rail,1969.0,328
122,北千住 Kita-Senju,35.749618775535474,139.804498214273,heavy_rail,1969.0,328
123,西日暮里 Nishi-Nippori,35.732558107881786,139.76721222150852,heavy_rail,1969.0,328
124,千駄木 Sendagi,35.72541510464124,139.76324291288262,heavy_rail,1969.0,328
125,根津 Nezu,35.71734731038267,139.7657569952049,heavy_rail,1969.0,328
126,湯島 Yushima,35.706897796802544,139.76997317011717,heavy_rail,1969.0,328
127,上野広小路 Ueno-Hirokoji,35.70797107167016,139.7730169121388,heavy_rail,1930.0,324
128,新御茶ノ水 Shin-Ochanomizu,35.69714945543502,139.76554234693754,heavy_rail,1969.0,328
129,大手町 Otemachi,35.68661973263829,139.76359428377404,heavy_rail,1969.0,328
130,二重橋前 Nijubashimae,35.68029068084317,139.76167597667848,heavy_rail,1971.0,328
131,日比谷 Hibiya,35.67371272362503,139.75834362975792,heavy_rail,1971.0,328
132,霞ケ関 Kasumigaseki,35.67251169284007,139.75156547377176,heavy_rail,1971.0,328
133,国会議事堂前 Kokkai-Gijido-mae,35.67376447757356,139.74321369321956,heavy_rail,1972.0,328
134,赤坂 Akasaka,35.67222263849607,139.73637387921954,heavy_rail,1972.0,328
135,明治神宮前 Meiji-Jingumae (Harajuku),35.66837919832712,139.70530930856577,heavy_rail,1972.0,332
136,代々木公園 Yoyogi-Koen,35.669055181649995,139.68993137295675,heavy_rail,1972.0,328
137,代々木上原 Yoyogi-Uehara,35.66936837984959,139.68050422617029,heavy_rail,1978.0,328
137,代々木上原 Yoyogi-Uehara,35.66936837984959,139.68050422617029,heavy_rail,1978.0,428
138,綾瀬 Ayase,35.76209977505395,139.8251095312802,heavy_rail,1971.0,328
138,綾瀬 Ayase,35.76209977505395,139.8251095312802,heavy_rail,1971.0,479
139,池袋 Ikebukuro,35.729407952354535,139.71106165388204,heavy_rail,1974.0,329
139,池袋 Ikebukuro,35.729407952354535,139.71106165388204,heavy_rail,1974.0,332
140,東池袋 Higashi Ikebukuro,35.726151430269034,139.71880351901277,heavy_rail,1974.0,329
141,江戸川橋 Edogawabashi,35.70968326440927,139.7331279722068,heavy_rail,1974.0,329
142,飯田橋 Iidabashi,35.701665347676155,139.74342970126077,heavy_rail,1974.0,329
143,市ケ谷 Ichigaya,35.691954047559825,139.7364636052773,heavy_rail,1974.0,329
144,麹町 Kojimachi,35.68497660966065,139.73723963657017,heavy_rail,1974.0,329
145,永田町 Nagatacho,35.67823416201407,139.74098944602002,heavy_rail,1974.0,329
146,桜田門 Sakuradamon,35.677374280664026,139.75167385567465,heavy_rail,1974.0,329
147,有楽町 Yurakucho,35.676016271397884,139.76190487722187,heavy_rail,1974.0,329
148,銀座一丁目 Ginza-itchome,35.67437018302173,139.76701681317658,heavy_rail,1974.0,329
149,新富町 Shintomicho,35.67050698436724,139.77369569155277,heavy_rail,1980.0,329
150,月島 Tsukishima,35.664840835258715,139.7843746287038,heavy_rail,1988.0,329
151,豊洲 Toyosu,35.6545721367142,139.79652795129715,heavy_rail,1988.0,329
152,新木場 Shin-Kiba,35.64601072689084,139.8269757343429,heavy_rail,1988.0,329
152,新木場 Shin-Kiba,35.64601072689084,139.8269757343429,heavy_rail,1988.0,451
152,新木場 Shin-Kiba,35.64601072689084,139.8269757343429,heavy_rail,1988.0,424
153,辰巳 Tatsumi,35.6457834087745,139.81025644444748,heavy_rail,1988.0,329
154,和光市 Wakoshi,35.78838002403939,139.6126305212808,heavy_rail,1987.0,329
154,和光市 Wakoshi,35.78838002403939,139.6126305212808,heavy_rail,1987.0,332
155,地下鉄成増 Chikatetsu-narimasu,35.77607995139845,139.6323405425806,heavy_rail,1983.0,329
155,地下鉄成増 Chikatetsu-narimasu,35.77607995139845,139.6323405425806,heavy_rail,1983.0,332
156,地下鉄赤塚 Chikatetsu-akatsuka,35.77004861636092,139.64380198146992,heavy_rail,1983.0,329
156,地下鉄赤塚 Chikatetsu-akatsuka,35.77004861636092,139.64380198146992,heavy_rail,1983.0,332
157,平和台 Heiwadai,35.757809054432705,139.65382225794426,heavy_rail,1983.0,329
157,平和台 Heiwadai,35.757809054432705,139.65382225794426,heavy_rail,1983.0,332
158,氷川台 Hikawadai,35.74960925194271,139.6657116180971,heavy_rail,1983.0,329
158,氷川台 Hikawadai,35.74960925194271,139.6657116180971,heavy_rail,1983.0,332
159,小竹向原 Kotake-mukaihara,35.74334348008669,139.6794932423489,heavy_rail,1983.0,329
159,小竹向原 Kotake-mukaihara,35.74334348008669,139.6794932423489,heavy_rail,1983.0,332
160,千川 Senkawa,35.73827340176828,139.68928486150503,heavy_rail,1983.0,329
160,千川 Senkawa,35.73827340176828,139.68928486150503,heavy_rail,1983.0,332
161,要町 Kanamecho,35.733252072523634,139.69836730579664,heavy_rail,1983.0,329
161,要町 Kanamecho,35.733252072523634,139.69836730579664,heavy_rail,1983.0,332
162,岩本町 Iwamotocho,35.6955936057234,139.7749401658547,heavy_rail,1978.0,335
163,馬喰横山 Bakuroyokoyama,35.6921069476945,139.7827961225536,heavy_rail,1978.0,335
164,浜町 Hamacho,35.68845428553636,139.78770479006664,heavy_rail,1978.0,335
165,森下 Morishita,35.68801920932431,139.79826563383645,heavy_rail,1978.0,335
165,森下 Morishita,35.68801920932431,139.79826563383645,heavy_rail,1978.0,336
166,菊川 Kikukawa,35.688398744769216,139.80605228143716,heavy_rail,1978.0,335
167,西大島 Nishi-ojima,35.68937944766022,139.82635177424126,heavy_rail,1978.0,335
168,大島 Ojima,35.68981306188112,139.83518527481505,heavy_rail,1978.0,335
169,東大島 Higashi-ojima,35.69005583800268,139.8470880369271,heavy_rail,1978.0,335
170,小川町 Ogawamachi,35.69504657318678,139.76651941738865,heavy_rail,1980.0,335
171,市ケ谷 Ichigaya,35.69163498447472,139.73781667455077,heavy_rail,1980.0,335
172,曙橋 Akebonobashi,35.692386715925124,139.7225406724665,heavy_rail,1980.0,335
173,新宿三丁目 Shinjuku-sanchome,35.690844267329304,139.7066023469376,heavy_rail,1980.0,335
174,新宿 Shinjuku,35.68861906099454,139.69895882724347,heavy_rail,1980.0,335
175,船堀 Funabori,35.683857072112254,139.86401034848896,heavy_rail,1983.0,335
176,一之江 Ichinoe,35.68588487569671,139.88284384197533,heavy_rail,1986.0,335
177,瑞江 Mizue,35.69344548896585,139.8978192607146,heavy_rail,1986.0,335
178,篠崎 Shinozaki,35.705921852928654,139.90388563945422,heavy_rail,1986.0,335
179,本八幡 Motoyawata,35.72282101341024,139.92659588692172,heavy_rail,1989.0,335
180,永田町 Nagatacho,35.678659923226775,139.7391691107432,heavy_rail,1979.0,330
180,永田町 Nagatacho,35.678659923226775,139.7391691107432,heavy_rail,1979.0,331
181,半蔵門 Hanzomon,35.685431867629205,139.7416178502923,heavy_rail,1982.0,330
182,神保町 Jimbocho,35.6959594554269,139.75811681487895,heavy_rail,1989.0,330
182,神保町 Jimbocho,35.6959594554269,139.75811681487895,heavy_rail,1989.0,335
182,神保町 Jimbocho,35.6959594554269,139.75811681487895,heavy_rail,1989.0,334
183,大手町 Otemachi,35.68668927816921,139.76492458846326,heavy_rail,1989.0,330
184,三越前 Mitsukoshimae,35.68495555796741,139.77301961725283,heavy_rail,1989.0,330
185,水天宮前 Suitengumae,35.68232992369722,139.78583574354818,heavy_rail,1990.0,330
186,清澄白河 Kiyosumi-shirakawa,35.68203231483301,139.79878748541546,heavy_rail,2003.0,330
186,清澄白河 Kiyosumi-shirakawa,35.68203231483301,139.79878748541546,heavy_rail,2003.0,336
187,住吉 Sumiyoshi,35.68901,139.8157156414187,heavy_rail,2003.0,330
187,住吉 Sumiyoshi,35.68901,139.8157156414187,heavy_rail,2003.0,335
188,錦糸町 Kinshicho,35.697121460922205,139.81500875356355,heavy_rail,2003.0,330
189,押上 Oshiage (Skytree),35.71067735631898,139.8133300557351,heavy_rail,2003.0,330
190,駒込 Komagome,35.73628176896042,139.74669687316583,heavy_rail,1991.0,331
191,王子 Oji,35.75432632683074,139.7374029591873,heavy_rail,1991.0,331
192,王子神谷 Oji-Kamiya,35.765247686159995,139.73570889796483,heavy_rail,1991.0,331
193,志茂 Shimo,35.77807293683963,139.7324586032666,heavy_rail,1991.0,331
194,赤羽岩淵 Akabane-Iwabuchi,35.78344973726988,139.72215050162583,heavy_rail,1991.0,331
194,赤羽岩淵 Akabane-Iwabuchi,35.78344973726988,139.72215050162583,heavy_rail,1991.0,494
195,東大前 Todaimae,35.7172509669802,139.7582137524691,heavy_rail,1996.0,331
196,後楽園 Korakuen,35.70789221470206,139.75183715015575,heavy_rail,1996.0,331
197,飯田橋 Iidabashi,35.70159891789248,139.74362013021607,heavy_rail,1996.0,331
198,市ケ谷 Ichigaya,35.69267181325674,139.7360542926875,heavy_rail,1996.0,331
199,四ツ谷 Yotsuya,35.685875162450884,139.72946654812793,heavy_rail,1996.0,331
200,白金台 Shirokanedai,35.63797914317737,139.72628683365363,heavy_rail,2000.0,334
200,白金台 Shirokanedai,35.63797914317737,139.72628683365363,heavy_rail,2000.0,331
201,目黒 Meguro,35.63319664811971,139.7156269203393,heavy_rail,2000.0,334
201,目黒 Meguro,35.63319664811971,139.7156269203393,heavy_rail,2000.0,331
202,新宿 Shinjuku,35.687890136154785,139.69924167637194,heavy_rail,1997.0,336
203,都庁前 Tochomae,35.69059619563337,139.69281035937914,heavy_rail,1997.0,336
204,西新宿五丁目 Nishi-Shinjuku-Gochome,35.68973755585148,139.6842546609729,heavy_rail,1997.0,336
205,中野坂上 Nakano-Sakaue,35.69767728087002,139.6829413676663,heavy_rail,1997.0,336
206,東中野 Higashi-Nakano,35.70707866836744,139.6831204388903,heavy_rail,1997.0,336
207,中井 Nakai,35.7139230353738,139.68629945175485,heavy_rail,1997.0,336
208,落合南長崎 Ochiai-Minami-Nagasaki,35.72342578101945,139.6834665889622,heavy_rail,1997.0,336
209,新江古田 Shin-Egota,35.73260993386972,139.67044021870316,heavy_rail,1997.0,336
210,練馬 Nerima,35.737338263281366,139.65443640778494,heavy_rail,1991.0,336
211,豊島園 Toshimaen,35.741570549184445,139.6490997197398,heavy_rail,1991.0,336
212,練馬春日町 Nerima-Kasugacho,35.75140115487149,139.64035065348304,heavy_rail,1991.0,336
213,光が丘 Hikarigaoka,35.75853666123659,139.62912876048523,heavy_rail,1991.0,336
214,代々木 Yoyogi,35.68342295134366,139.70162249648368,heavy_rail,2000.0,336
215,国立競技場Kokuritsu-Kyogijo,35.67995943695615,139.71444885312118,heavy_rail,2000.0,336
216,六本木 Roppongi,35.66382961634003,139.73165444430444,heavy_rail,2000.0,336
217,麻布十番 Azabu-Juban,35.6565007586041,139.73613164228794,heavy_rail,2000.0,336
218,赤羽橋 Akabanebashi,35.65501302065805,139.7438991259523,heavy_rail,2000.0,336
219,大門 Daimon,35.656696890059536,139.75581581546885,heavy_rail,2000.0,336
220,汐留 Shiodome,35.66344054478818,139.76048899416963,heavy_rail,2002.0,336
221,築地市場 Tsukijishijo,35.66483429924062,139.7669744989495,heavy_rail,2000.0,336
222,勝どき Kachidoki,35.659318463377865,139.77767468922943,heavy_rail,2000.0,336
223,月島 Tsukishima,35.66373699311393,139.7839172080243,heavy_rail,2000.0,336
224,両国 Ryogoku,35.69656880861254,139.79746811568674,heavy_rail,2000.0,336
225,蔵前 Kuramae,35.70555386788052,139.79229380242538,heavy_rail,2000.0,336
226,新御徒町 Shin-Okachimachi,35.707042485127744,139.78196125866785,heavy_rail,2000.0,336
226,新御徒町 Shin-Okachimachi,35.707042485127744,139.78196125866785,heavy_rail,2000.0,495
227,上野御徒町 Ueno-Okachimachi,35.707879148750685,139.77411758647065,heavy_rail,2000.0,336
228,本郷三丁目 Hongo-Sanchome,35.70750595575071,139.76043741814328,heavy_rail,2000.0,336
229,春日 Kasuga,35.70852,139.75270075143064,heavy_rail,2000.0,336
230,飯田橋 Iidabashi,35.7029664122519,139.74517499034056,heavy_rail,2000.0,336
231,東新宿 Higashi-Shinjuku,35.69793842806821,139.70749535531934,heavy_rail,2000.0,336
232,新宿西口 Shinjuku-Nishiguchi,35.693971042306615,139.6990072472449,heavy_rail,2000.0,336
233,西早稲田 Nishi-Waseda,35.70760587767881,139.7090146512463,heavy_rail,2008.0,332
234,東新宿 Higashi-Shinjuku,35.69962924941511,139.7078357880048,heavy_rail,2008.0,332
235,新宿三丁目 Shinjuku-sanchome,35.69065245074214,139.70473463558832,heavy_rail,2008.0,332
236,Haneda,35.54847910385894,139.76063679730237,people_mover,1964.0,446
237,Hamamatsucho,35.65543955636971,139.75669267625537,people_mover,1964.0,446
238,Tenkubashi,35.548983099091735,139.75438421678714,people_mover,1993.0,446
239,Tennozu Isle,35.6226801784981,139.75081791354853,people_mover,1992.0,446
240,Haneda Airport Terminal 1,35.549080845585095,139.78455900978918,people_mover,1993.0,446
241,Shin-Seibijo,35.54268347750952,139.7871451709291,people_mover,1993.0,446
242,Haneda Airport Terminal 2,35.550744083357266,139.78816992636726,people_mover,2004.0,446
243,Oi Keibijo-mae,35.595438853567344,139.74706102561208,people_mover,1965.0,446
244,Ryutsu Center,35.58156387894141,139.74917259450316,people_mover,1969.0,446
245,Showajima,35.57083266027118,139.7500147926234,people_mover,1985.0,446
246,Seibijo,35.555130376447345,139.75335429460824,people_mover,1967.0,446
247,Takeshiba,35.65400146984875,139.76191626826466,people_mover,1995.0,445
248,	新橋 Shimbashi,35.66534572516758,139.75986860797738,people_mover,1995.0,445
249,Hinode,35.64912085415442,139.75907335594349,people_mover,1995.0,445
250,Shibaura-futo,35.641697938673566,139.7577701482749,people_mover,1995.0,445
251,Odaiba-kaihinkoen,35.62989885687909,139.77878313381032,people_mover,1995.0,445
252,Daiba,35.62588845485228,139.77140558234618,people_mover,1995.0,445
253,Fune-no-kagakukan,35.621419346763695,139.7730819452229,people_mover,1995.0,445
254,Telecom Center,35.617568252824576,139.77944,people_mover,1995.0,445
255,Aomi,35.624728245565294,139.78125549185245,people_mover,1995.0,445
256,Kokusai-tenjijo-seimon,35.630225138985104,139.7913868386838,people_mover,1995.0,445
257,Ariake,35.634570312112004,139.793279715251,people_mover,1995.0,445
258,Ariake-Tennis-no-mori,35.64013307263332,139.7887685070501,people_mover,2006.0,445
259,Shijo-mae,35.64578010712311,139.7858044333895,people_mover,2006.0,445
260,Shin-toyosu,35.648757770716095,139.7902078628676,people_mover,2006.0,445
261,豊洲 Toyosu,35.65376774211554,139.79546005254562,people_mover,2006.0,445
262,国際展示場 Kokusai-Tenjijo,35.63444480817957,139.79176833891597,heavy_rail,1996.0,451
263,東雲 Shinonome,35.64072118133636,139.8036116798332,heavy_rail,1996.0,451
264,東京テレポート Tokyo Terepoto (Tokyo Teleport),35.62710112052136,139.77810411091917,heavy_rail,1996.0,451
265,天王洲アイル Tennozu Aire (Tennozu Isle),35.62055967750214,139.7508782123801,heavy_rail,2001.0,451
266,品川シーサイド Shinagawa Shisaido (Shinagawa Seaside),35.609699997654765,139.7498757331887,heavy_rail,2002.0,451
267,大井町 Oimachi,35.60742636837019,139.73459027552337,heavy_rail,2002.0,451
268,大崎 Osaki,35.61927468612191,139.7282939962943,heavy_rail,2002.0,451
269,Nippori,35.72886874613204,139.7712990500234,light_rail,2008.0,415
270,西日暮里 Nishi-Nippori,35.73375716893443,139.7680963997659,light_rail,2008.0,415
271,Akado-shogakkomae,35.74289614851433,139.76903788342605,light_rail,2008.0,415
272,Kumanomae,35.74870758013827,139.76987265582295,light_rail,2008.0,415
273,Adachi-Odai,35.75470874157816,139.7703772908136,light_rail,2008.0,415
274,Ogi-ohashi,35.763932785192665,139.77082909018844,light_rail,2008.0,415
275,Koya,35.7683937963004,139.77070422963965,light_rail,2008.0,415
276,Kohoku,35.77381140473611,139.77032964861257,light_rail,2008.0,415
277,Nishiaraidaishi-nishi,35.78146466544408,139.7700924137369,light_rail,2008.0,415
278,Yazaike,35.78873631959476,139.77003915933273,light_rail,2008.0,415
279,Toneri-koen,35.79640157566489,139.7701390470641,light_rail,2008.0,415
280,Toneri,35.80571483087489,139.77011239226312,light_rail,2008.0,415
281,Minumadai-shinsuikoen,35.814548845728126,139.77075242290107,light_rail,2008.0,415
282,Shinagawa,35.628129436303865,139.73846020910258,heavy_rail,1885.0,417
283,渋谷 Shibuya,35.6579537124475,139.7016906154389,heavy_rail,1885.0,417
283,渋谷 Shibuya,35.6579537124475,139.7016906154389,heavy_rail,1885.0,2366
283,渋谷 Shibuya,35.6579537124475,139.7016906154389,heavy_rail,1885.0,3000
283,渋谷 Shibuya,35.6579537124475,139.7016906154389,commuter_rail,1885.0,417
283,渋谷 Shibuya,35.6579537124475,139.7016906154389,commuter_rail,1885.0,2366
283,渋谷 Shibuya,35.6579537124475,139.7016906154389,commuter_rail,1885.0,3000
284,Shinjuku,35.68944772013329,139.7001711672538,heavy_rail,1885.0,417
284,Shinjuku,35.68944772013329,139.7001711672538,heavy_rail,1885.0,2366
284,Shinjuku,35.68944772013329,139.7001711672538,heavy_rail,1885.0,3000
284,Shinjuku,35.68944772013329,139.7001711672538,commuter_rail,1885.0,417
284,Shinjuku,35.68944772013329,139.7001711672538,commuter_rail,1885.0,2366
284,Shinjuku,35.68944772013329,139.7001711672538,commuter_rail,1885.0,3000
285,池袋 Ikebukuro,35.73046170549329,139.71108539573055,heavy_rail,1903.0,417
285,池袋 Ikebukuro,35.73046170549329,139.71108539573055,heavy_rail,1903.0,2366
285,池袋 Ikebukuro,35.73046170549329,139.71108539573055,heavy_rail,1903.0,3000
285,池袋 Ikebukuro,35.73046170549329,139.71108539573055,commuter_rail,1903.0,417
285,池袋 Ikebukuro,35.73046170549329,139.71108539573055,commuter_rail,1903.0,2366
285,池袋 Ikebukuro,35.73046170549329,139.71108539573055,commuter_rail,1903.0,3000
286,Sugamo,35.73342934072329,139.73944481449823,heavy_rail,1903.0,417
287,Otsuka,35.731745629237984,139.72833474340263,heavy_rail,1903.0,417
288,Tabata,35.73754979823321,139.76149324076655,heavy_rail,1903.0,417
289,Nippori,35.727948916511544,139.77045093709864,heavy_rail,1919.0,417
290,東京駅 Tokyoeki (Tokyo Railway Station),35.681262949179064,139.7665905841764,heavy_rail,1919.0,417
291,上野 Ueno,35.71347303552125,139.77605832467538,heavy_rail,1919.0,417
292,Mejiro,35.721192980818195,139.70648721463215,heavy_rail,1885.0,417
293,Harajuku,35.67093098426008,139.7025631130691,heavy_rail,1906.0,417
294,高田馬場 Takadanobaba,35.71269040060437,139.70363172705302,heavy_rail,1910.0,417
295,Komagome,35.73693468348486,139.74806476639463,heavy_rail,1910.0,417
296,Gotanda,35.626101499439955,139.72374912335414,heavy_rail,1911.0,417
297,Uguisudani,35.721480652680654,139.77814214617254,heavy_rail,1919.0,417
298,Shin-Okubo,35.70129550185759,139.7002523129177,heavy_rail,1914.0,417
299,Meguro,35.632697285212295,139.7161095276348,heavy_rail,1885.0,417
300,Okachimachi,35.707510125378754,139.77473001855452,heavy_rail,1925.0,417
301,西日暮里 Nishi-Nippori,35.732032597351505,139.76677398915265,heavy_rail,1971.0,417
302,Akihabara,35.69846170442299,139.77305161127768,heavy_rail,1925.0,417
303,Kanda,35.69180675601292,139.77093493562649,heavy_rail,1925.0,417
304,Yurakucho,35.67496835597607,139.7630712512219,heavy_rail,1919.0,417
305,新橋 Shimbashi,35.66615039864277,139.75814550089854,heavy_rail,1919.0,417
306,Hamamatsucho,35.65509817813751,139.7570525416971,heavy_rail,1919.0,417
307,Tamachi,35.645735848879326,139.74768845779818,heavy_rail,1919.0,417
308,Osaki,35.619375315939024,139.7287598867747,heavy_rail,1909.0,417
308,Osaki,35.619375315939024,139.7287598867747,heavy_rail,1909.0,2366
308,Osaki,35.619375315939024,139.7287598867747,commuter_rail,1909.0,417
308,Osaki,35.619375315939024,139.7287598867747,commuter_rail,1909.0,2366
309,Yoyogi,35.68384050389805,139.70204033955494,heavy_rail,1909.0,417
310,Seibu-Shinjuku,35.69609065427592,139.70003336578432,heavy_rail,1952.0,431
311,Tokorozawa,35.78714507154828,139.473241998687,heavy_rail,1895.0,431
312,Kumegawa,35.74958464016301,139.47263862619127,heavy_rail,1895.0,431
313,Iriso,35.832484465966715,139.42706330865104,heavy_rail,1895.0,431
314,Sayamashi,35.857336961677845,139.41333759070028,heavy_rail,1895.0,431
315,Hon-Kawagoe,35.914069595073954,139.48135709414095,heavy_rail,1895.0,431
316,Higashi-Murayama,35.75997514776539,139.46590128295298,heavy_rail,1895.0,431
317,Kodaira,35.73710011722041,139.48834208877594,heavy_rail,1927.0,431
318,Hana-Koganei,35.726183129825856,139.51342316505145,heavy_rail,1927.0,431
319,Tanashi,35.727328107449424,139.53965973118096,heavy_rail,1927.0,431
320,Seibu-Yagisawa,35.72862345606683,139.55272013103206,heavy_rail,1927.0,431
321,Higashi-Fushimi,35.728681162567966,139.56443747435662,heavy_rail,1927.0,431
322,Musashi-Seki,35.72752344009528,139.5774474509613,heavy_rail,1927.0,431
323,Kami-Shakujii,35.726097720379386,139.59295065569592,heavy_rail,1927.0,431
324,Kami-Igusa,35.72524895748248,139.60317158805543,heavy_rail,1927.0,431
325,Iogi,35.72466408847551,139.61538162005218,heavy_rail,1927.0,431
326,Shimo-Igusa,35.72383595905961,139.62547230217655,heavy_rail,1927.0,431
327,Saginomiya,35.72264075810571,139.63957650921708,heavy_rail,1927.0,431
328,Nogata,35.719554671667964,139.6534966334899,heavy_rail,1927.0,431
329,Numabukuro,35.719273926848615,139.66473672605292,heavy_rail,1927.0,431
330,Araiyakushimae,35.715691546363445,139.67269820119958,heavy_rail,1927.0,431
331,中井 Nakai,35.71509454657512,139.68629745130076,heavy_rail,1927.0,431
332,Shimo-Ochiai,35.715746016899345,139.69550406431813,heavy_rail,1927.0,431
333,高田馬場 Takadanobaba,35.712645171089086,139.7038732863979,heavy_rail,1927.0,431
334,Toritsu-Kasei,35.72225917500816,139.64527041226455,heavy_rail,1937.0,431
335,Minami-Otsuka,35.8900462843571,139.45460582110252,heavy_rail,1897.0,431
336,Shin-Sayama,35.87396917600121,139.43340697981563,heavy_rail,1964.0,431
337,Koku-koen,35.79832713684567,139.4656246269792,heavy_rail,1987.0,431
338,Shin-Tokorozawa,35.806856055279255,139.45587448952614,heavy_rail,1951.0,431
339,池袋 Ikebukuro,35.73036967197593,139.71070329604518,heavy_rail,1914.0,438
340,Shimo-Itabashi,35.7455739969614,139.71492556536708,heavy_rail,1914.0,438
341,Narimasu,35.77761130162126,139.6329372165888,heavy_rail,1914.0,438
342,Asaka,35.796680164184394,139.6003422019408,heavy_rail,1914.0,438
343,Shiki,35.82232405202785,139.57515646819326,heavy_rail,1914.0,438
344,Tsuruse,35.84577370359379,139.5393610575873,heavy_rail,1914.0,438
345,Shingashi,35.89094380319892,139.4972489439511,heavy_rail,1914.0,438
346,Kawagoe,35.90699366369871,139.48338337756795,heavy_rail,1915.0,438
347,Kawagoeshi,35.91403448081364,139.4771852733149,heavy_rail,1914.0,438
348,Tanomozawa,35.92285036961236,139.4554505996622,heavy_rail,1914.0,438
349,Kasumigaseki,35.92541417760178,139.44386928100528,heavy_rail,1916.0,438
350,Sakado,35.957010065818764,139.3939093996202,heavy_rail,1916.0,438
351,Kami-Itabashi,35.76358355143901,139.67640180190782,heavy_rail,1914.0,438
352,Shimo-Akatsuka,35.77064561602728,139.64441819915254,heavy_rail,1930.0,438
353,Oyama,35.748582817326536,139.7024713521405,heavy_rail,1931.0,438
354,Kanaikubo,35.74686401210785,139.7088929244099,heavy_rail,1931.0,438
355,Tobu-Nerima,35.768714239732674,139.66180063560836,heavy_rail,1931.0,438
356,Tsurugashima,35.93692016942737,139.4236576167416,heavy_rail,1932.0,438
357,Naka-Itabashi,35.75643390863007,139.6941088980762,heavy_rail,1933.0,438
358,和光市 Wakoshi,35.7885327044803,139.61270975522103,heavy_rail,1934.0,438
359,Kita-Ikebukuro,35.74096791742063,139.71679119164486,heavy_rail,1934.0,438
360,Tokiwadai,35.75890789353505,139.68851655605545,heavy_rail,1935.0,438
361,Mizuhodai,35.83828513211449,139.5508118060966,heavy_rail,1977.0,438
362,Kami-Fukuoka,35.873900581610584,139.51177110361346,heavy_rail,1914.0,438
363,Fujimino,35.86084142088001,139.52305133877513,heavy_rail,1993.0,438
364,Yanasegawa,35.83084463791651,139.5620289742368,heavy_rail,1979.0,438
365,Asakadai,35.81472787142876,139.58684669502964,heavy_rail,1974.0,438
366,Wakaba,35.949063255183546,139.4086414322275,heavy_rail,1979.0,438
367,Yokohama,35.450993388488186,139.6310780083776,heavy_rail,1872.0,454
368,Yokohama,35.46622828293499,139.62295896895057,heavy_rail,1928.0,454
369,Kawasaki,35.531336401221324,139.6969149065398,heavy_rail,1872.0,454
370,Kanagawa,35.469570920375375,139.62559496446215,heavy_rail,1872.0,454
371,Shinagawa,35.628584621157955,139.7393063936542,heavy_rail,1872.0,454
372,Shimbashi,35.6659762564922,139.7614491909942,heavy_rail,1872.0,454
373,Tsurumi,35.508254043611615,139.67620255323146,heavy_rail,1872.0,454
374,Omori,35.588481854858706,139.72793392514885,heavy_rail,1876.0,454
375,上野 Ueno,35.71347972674805,139.77715042378102,commuter_rail,1883.0,456
375,上野 Ueno,35.71347972674805,139.77715042378102,commuter_rail,1883.0,455
376,Oji,35.75222110677017,139.7381796773428,commuter_rail,1883.0,456
376,Oji,35.75222110677017,139.7381796773428,commuter_rail,1883.0,455
377,Urawa,35.858974961114285,139.65719349444018,commuter_rail,1883.0,456
377,Urawa,35.858974961114285,139.65719349444018,commuter_rail,1883.0,455
378,Ageo,35.97327635788673,139.58850162958606,heavy_rail,1883.0,457
379,Konosu,36.05920690154986,139.5094289538579,heavy_rail,1883.0,457
380,Omiya,35.90631577884464,139.62434624457478,commuter_rail,1885.0,456
380,Omiya,35.90631577884464,139.62434624457478,commuter_rail,1885.0,455
381,Hasuda,35.98129434263984,139.65297825011015,commuter_rail,1885.0,455
381,Hasuda,35.98129434263984,139.65297825011015,commuter_rail,1885.0,456
382,Kuki,36.06560746974944,139.67746618736442,commuter_rail,1885.0,455
382,Kuki,36.06560746974944,139.67746618736442,commuter_rail,1885.0,456
383,Kurihashi,36.136778343537415,139.69419434852875,commuter_rail,1885.0,455
383,Kurihashi,36.136778343537415,139.69419434852875,commuter_rail,1885.0,456
384,錦糸町 Kinshicho,35.69667398349854,139.81399447995597,heavy_rail,1894.0,419
384,錦糸町 Kinshicho,35.69667398349854,139.81399447995597,heavy_rail,1894.0,2448
385,Ichikawa,35.72876555567737,139.90820554370305,heavy_rail,1894.0,419
385,Ichikawa,35.72876555567737,139.90820554370305,heavy_rail,1894.0,2448
386,Makuhari,35.659383987734785,140.05794174146342,heavy_rail,1894.0,419
387,Yotsukaido,35.6629967258566,140.16576595140197,heavy_rail,1894.0,620
387,Yotsukaido,35.6629967258566,140.16576595140197,heavy_rail,1894.0,3021
387,Yotsukaido,35.6629967258566,140.16576595140197,heavy_rail,1894.0,3000
388,中野 Nakano,35.70591560968276,139.6653819432055,heavy_rail,1889.0,458
388,中野 Nakano,35.70591560968276,139.6653819432055,heavy_rail,1889.0,419
388,中野 Nakano,35.70591560968276,139.6653819432055,heavy_rail,1889.0,327
389,Musashi-Sakai,35.70211143278702,139.54419399753,heavy_rail,1889.0,458
390,Kokubunji,35.70021448970408,139.4802523000692,heavy_rail,1889.0,458
390,Kokubunji,35.70021448970408,139.4802523000692,heavy_rail,1889.0,3000
391,Tachikawa,35.69804194497563,139.41353303449688,heavy_rail,1889.0,458
391,Tachikawa,35.69804194497563,139.41353303449688,heavy_rail,1889.0,3000
391,Tachikawa,35.69804194497563,139.41353303449688,heavy_rail,1889.0,3179
392,Hino,35.6786990570442,139.39354770107542,heavy_rail,1890.0,458
392,Hino,35.6786990570442,139.39354770107542,heavy_rail,1890.0,3179
393,Shinjuku,35.68951162014731,139.70066191178827,heavy_rail,1889.0,458
393,Shinjuku,35.68951162014731,139.70066191178827,heavy_rail,1889.0,419
394,Shinanomachi,35.68004830180159,139.72016830970043,heavy_rail,1894.0,419
395,四ツ谷 Yotsuya,35.686061497761955,139.7306177624225,heavy_rail,1894.0,458
395,四ツ谷 Yotsuya,35.686061497761955,139.7306177624225,heavy_rail,1894.0,419
396,Ushigome,35.69918971765307,139.74292624495257,heavy_rail,1894.0,458
397,荻窪 Ogikubo,35.70447210455392,139.61975184401388,heavy_rail,1891.0,458
397,荻窪 Ogikubo,35.70447210455392,139.61975184401388,heavy_rail,1891.0,419
398,Ichigaya,35.691255964246125,139.73555868488708,heavy_rail,1895.0,419
399,Iidamachi,35.70229881971644,139.74889709114672,heavy_rail,1895.0,419
400,Okubo,35.700561618519245,139.69752653654783,heavy_rail,1895.0,419
401,Kichioji,35.703205453487854,139.5797158056476,heavy_rail,1899.0,458
401,Kichioji,35.703205453487854,139.5797158056476,heavy_rail,1899.0,419
401,Kichioji,35.703205453487854,139.5797158056476,heavy_rail,1899.0,3000
402,Toyoda,35.65942657429552,139.38141771807364,heavy_rail,1901.0,458
402,Toyoda,35.65942657429552,139.38141771807364,heavy_rail,1901.0,3179
403,Sendagaya,35.68124080029899,139.71132614432534,heavy_rail,1904.0,419
404,Suidobashi,35.70199504842984,139.75365284984423,heavy_rail,1906.0,419
405,Yoyogi,35.68386789528403,139.70228205522986,heavy_rail,1906.0,419
406,Shoheibashi,35.69839318512408,139.76844779747003,heavy_rail,1908.0,458
407,Manseibashi,35.697365425438946,139.76983519697563,heavy_rail,1912.0,458
408,Iidabashi,35.70140292081852,139.74446063687785,heavy_rail,1928.0,419
409,東中野 Higashi-Nakano,35.70632988472709,139.684898323616,heavy_rail,1906.0,419
410,Kanda,35.691854239745574,139.7707802807041,heavy_rail,1919.0,458
411,東京駅 Tokyoeki (Tokyo Railway Station),35.6813187021344,139.76632072606566,heavy_rail,1919.0,458
412,Hachioji,35.655477911657755,139.33883679163768,heavy_rail,1889.0,458
412,Hachioji,35.655477911657755,139.33883679163768,heavy_rail,1889.0,3000
412,Hachioji,35.655477911657755,139.33883679163768,heavy_rail,1889.0,3179
413,Takao,35.64238123612526,139.2828856052579,heavy_rail,1901.0,458
413,Takao,35.64238123612526,139.2828856052579,heavy_rail,1901.0,3179
414,Sakura,35.70965661188697,140.22621358752372,heavy_rail,1894.0,620
414,Sakura,35.70965661188697,140.22621358752372,heavy_rail,1894.0,3021
414,Sakura,35.70965661188697,140.22621358752372,heavy_rail,1894.0,3000
415,Shimosa-Nakayama,35.71426107407218,139.94303517235988,heavy_rail,1895.0,419
416,Tsudanuma,35.69118139980097,140.02037908439996,heavy_rail,1895.0,419
416,Tsudanuma,35.69118139980097,140.02037908439996,heavy_rail,1895.0,2448
417,Naruto,35.60848664931814,140.41085605387252,heavy_rail,1897.0,3021
418,Hirai,35.70640395940681,139.84252935830528,heavy_rail,1899.0,419
419,Koiwa,35.73323629758261,139.88181567667465,heavy_rail,1899.0,419
420,Inage,35.637039517691875,140.0925521453354,heavy_rail,1899.0,419
420,Inage,35.637039517691875,140.0925521453354,heavy_rail,1899.0,2448
421,Hyuga,35.6283155474771,140.36269635684238,heavy_rail,1899.0,3021
422,Kameido,35.69734036846491,139.82703363151455,heavy_rail,1904.0,419
423,Ryogoku,35.695848282363045,139.79301887593044,heavy_rail,1904.0,419
424,千葉  Chiba,35.61349313452338,140.11343318512104,heavy_rail,1894.0,419
424,千葉  Chiba,35.61349313452338,140.11343318512104,heavy_rail,1894.0,2448
425,Minami-Shisui,35.70430060760637,140.26815407574816,heavy_rail,1914.0,3021
426,Shin-Koiwa,35.71689995434296,139.85803249145982,heavy_rail,1928.0,419
426,Shin-Koiwa,35.71689995434296,139.85803249145982,heavy_rail,1928.0,2448
427,Ochanomizu,35.69958823021793,139.76496,heavy_rail,1932.0,419
427,Ochanomizu,35.69958823021793,139.76496,heavy_rail,1932.0,458
428,Moto-Yawata,35.72089592067955,139.9272147929551,heavy_rail,1935.0,419
429,Monoi,35.68567601605437,140.20028162600005,heavy_rail,1937.0,620
429,Monoi,35.68567601605437,140.20028162600005,heavy_rail,1937.0,3021
430,Nishi-Chiba,35.62278037079054,140.10323341097643,heavy_rail,1942.0,419
431,Shin-Kemigawa,35.65176533214597,140.07303127290328,heavy_rail,1951.0,419
432,西船橋 Nishi-Funabashi,35.70730537179423,139.9596176530624,heavy_rail,1958.0,419
432,西船橋 Nishi-Funabashi,35.70730537179423,139.9596176530624,heavy_rail,1958.0,327
432,西船橋 Nishi-Funabashi,35.70730537179423,139.9596176530624,heavy_rail,1958.0,424
432,西船橋 Nishi-Funabashi,35.70730537179423,139.9596176530624,heavy_rail,1958.0,563
432,西船橋 Nishi-Funabashi,35.70730537179423,139.9596176530624,heavy_rail,1958.0,492
433,Funabashi,35.7017010821376,139.98499073734297,heavy_rail,1894.0,419
433,Funabashi,35.7017010821376,139.98499073734297,heavy_rail,1894.0,2448
434,Higashi-Funabashi,35.69977689139327,140.00429764602217,heavy_rail,1981.0,419
435,Makuharihongo,35.67266247239624,140.04226235289053,heavy_rail,1981.0,419
436,Asakusabashi,35.69739429476085,139.78462161809722,heavy_rail,1932.0,419
437,Akihabara,35.69836883532356,139.77316767999645,heavy_rail,1932.0,419
438,Kawaguchi,35.80186613585053,139.71736716079022,commuter_rail,1884.0,456
438,Kawaguchi,35.80186613585053,139.71736716079022,commuter_rail,1884.0,455
439,Akabane,35.77813901027805,139.72077140905705,commuter_rail,1885.0,456
439,Akabane,35.77813901027805,139.72077140905705,commuter_rail,1885.0,455
440,Oku,35.7466814558818,139.75423926490728,commuter_rail,1929.0,455
440,Oku,35.7466814558818,139.75423926490728,commuter_rail,1929.0,457
440,Oku,35.7466814558818,139.75423926490728,heavy_rail,1929.0,455
440,Oku,35.7466814558818,139.75423926490728,heavy_rail,1929.0,457
441,Saitama-Shintoshin,35.89372742428983,139.63378617836176,commuter_rail,2000.0,456
441,Saitama-Shintoshin,35.89372742428983,139.63378617836176,commuter_rail,2000.0,455
442,Kasumori,35.66619002710989,139.75858554000342,heavy_rail,1909.0,454
443,新橋 Shimbashi,35.66619351006996,139.7585853708785,heavy_rail,1914.0,454
444,Shiodome,35.66597134962997,139.76143648388555,heavy_rail,1914.0,454
445,Hamamatsucho,35.65507186987534,139.75729260538668,heavy_rail,1909.0,454
446,Tamachi,35.64556510717688,139.74780459716925,heavy_rail,1909.0,454
447,Yurakucho,35.67477531958956,139.7632894047954,heavy_rail,1910.0,454
448,Gofukubashi,35.68400899597438,139.76813406515572,heavy_rail,1910.0,454
449,東京駅 Tokyoeki (Tokyo Railway Station),35.681017120222776,139.76766209554222,heavy_rail,1914.0,454
450,Higashi-Chiba,35.616829956807365,140.12221984942988,heavy_rail,1965.0,620
450,Higashi-Chiba,35.616829956807365,140.12221984942988,heavy_rail,1965.0,3021
451,Tsuga,35.636027399640625,140.14921480109444,heavy_rail,1968.0,620
451,Tsuga,35.636027399640625,140.14921480109444,heavy_rail,1968.0,3021
452,Enokido,35.68401001268721,140.28822077340726,heavy_rail,1958.0,3021
453,Yachimata,35.66307129253808,140.31770058128757,heavy_rail,1897.0,3021
454,Kamata,35.56179892433604,139.7157787472047,heavy_rail,1904.0,454
455,Higashi-Kanagawa,35.478012137510376,139.63310790511258,heavy_rail,1908.0,454
456,Fudo-mae,35.62534989325685,139.71304679264728,heavy_rail,1923.0,441
457,Musashi-Koyama,35.62022495781464,139.70401098547046,heavy_rail,1923.0,441
458,Nishi-Koyama,35.615485189429066,139.69870074895573,heavy_rail,1923.0,441
459,Senzoku,35.61013975617438,139.69416676701167,heavy_rail,1923.0,441
460,Ookayama,35.607363654270884,139.6854586497891,heavy_rail,1923.0,441
461,Okusawa,35.60404061135621,139.6727549024539,heavy_rail,1923.0,441
462,Den-en-chofu,35.59688668020027,139.66732725264802,heavy_rail,1923.0,441
463,Tamagawa,35.5896107319881,139.66880626526722,heavy_rail,1923.0,441
464,Shin-Maruko,35.58059476792792,139.6620097765055,heavy_rail,2000.0,441
465,Musashi-Kosugi,35.57619272788486,139.65989008759556,heavy_rail,2000.0,441
466,Motosumiyoshi,35.56447078604559,139.65415149847837,heavy_rail,2008.0,441
467,Hiyoshi,35.5534161349031,139.6468923910404,heavy_rail,2008.0,441
468,Numabe,35.58271280198382,139.67313021365868,heavy_rail,1923.0,441
469,Numabe,35.582698397190654,139.67311602871,heavy_rail,2000.0,443
470,Tamagawa,35.589602872502354,139.6688116364075,heavy_rail,2000.0,443
471,Unoki,35.57544734778544,139.68058742468156,heavy_rail,2000.0,443
472,Shimo-Maruko,35.57137195945254,139.68560009963088,heavy_rail,2000.0,443
473,Musashi-Nitta,35.5678550050032,139.69248722963763,heavy_rail,2000.0,443
474,Yaguchinowatashi,35.5625653397772,139.70024247742526,heavy_rail,2000.0,443
475,Kamata,35.561601939688714,139.71494572329544,heavy_rail,2000.0,443
476,Unoki,35.575450511688274,139.68060382556024,heavy_rail,1923.0,441
477,Shimo-Maruko,35.57138852446269,139.68560756313428,heavy_rail,1923.0,441
478,Musashi-Nitta,35.56786359576898,139.69249947711683,heavy_rail,1923.0,441
479,Yaguchinowatashi,35.56258516956285,139.7002529815099,heavy_rail,1923.0,441
480,Kamata,35.56165467660581,139.71494518580505,heavy_rail,1923.0,441
481,北綾瀬 Kita-Ayase,35.77702379984341,139.83215131024025,heavy_rail,1979.0,328
482,Kamata,35.56180293403864,139.71495325165665,heavy_rail,1922.0,440
483,Hasunuma,35.56424993206265,139.70850350404442,heavy_rail,1922.0,440
484,Ikegami,35.572065982703734,139.70288609599777,heavy_rail,1922.0,440
485,Yukigaya-Otsuka,35.59200562603964,139.68102731364223,heavy_rail,1923.0,440
486,Kirigaya,35.61854745958839,139.71883802044428,heavy_rail,1927.0,440
487,Osaki-Hirokoji,35.622716946127966,139.7227337979944,heavy_rail,1927.0,440
488,Gotanda,35.62525295238417,139.724233651757,heavy_rail,1928.0,440
489,Hatanodai,35.604826020606126,139.7027672926202,heavy_rail,1927.0,440
490,Ebara-Nakanobu,35.60992173915632,139.71196317683166,heavy_rail,1927.0,440
491,Togoshi-Ginza,35.616047185210235,139.7149735173876,heavy_rail,1927.0,440
492,Nagahara,35.602245657360925,139.69792613739872,heavy_rail,1927.0,440
493,Senzoku-Ike,35.59979434987788,139.69127467224558,heavy_rail,1927.0,440
494,Ishikawadai,35.59698189448319,139.68526168423614,heavy_rail,1927.0,440
495,Ontakesan,35.58521224009368,139.6825112640036,heavy_rail,1923.0,440
496,Kugahara,35.57958328383238,139.68563769774386,heavy_rail,1923.0,440
497,Chidoricho,35.572897259602115,139.69157502448184,heavy_rail,1926.0,440
498,Shinjuku,35.690217791057954,139.6996298493195,heavy_rail,1927.0,428
499,Odawara,35.256447886862475,139.15539269112708,heavy_rail,1927.0,428
500,Komae,35.63232811803819,139.5773830191813,heavy_rail,1927.0,428
501,Zama,35.480701859913296,139.39992784287165,heavy_rail,1927.0,428
502,Umegaoka,35.65609429528402,139.653836295556,heavy_rail,1934.0,428
503,Odakyu-Sagamihara,35.515100506950134,139.4226300814978,heavy_rail,1938.0,428
504,Sagami-Ono,35.53181558862289,139.43748372708404,heavy_rail,1938.0,428
505,Ebina,35.45280985287242,139.39097594460213,heavy_rail,1943.0,428
506,Hotaruda,35.28501509419365,139.15209906039206,heavy_rail,1952.0,428
507,Yurigaoka,35.60905236983143,139.5161188064384,heavy_rail,1960.0,428
508,Kaisei,35.32629815657933,139.1359250957679,heavy_rail,1985.0,428
509,Minami-Shinjuku,35.68368599010091,139.69886464394347,heavy_rail,1927.0,428
510,Sangubashi,35.67897345970168,139.69383926988658,heavy_rail,1927.0,428
511,Yoyogi-Hachiman,35.66964846986528,139.6888256366551,heavy_rail,1927.0,428
512,Higashi-Kitazawa,35.66562600243353,139.67327971914125,heavy_rail,1927.0,428
513,Shimo-Kitazawa,35.66136684689016,139.66712108672732,heavy_rail,1927.0,428
514,Setagaya-Daita,35.65823097208218,139.66121158924807,heavy_rail,1927.0,428
515,Gotokuji,35.65356295410169,139.64689547979128,heavy_rail,1927.0,428
516,Kyodo,35.651212925448164,139.63669855393368,heavy_rail,1927.0,428
517,Chitose-Funabashi,35.647363198063374,139.623827164832,heavy_rail,1927.0,428
518,Soshigaya-Okura,35.64324565511224,139.6097859496573,heavy_rail,1927.0,428
519,Seijogakuen-Mae,35.63993689476399,139.59831090605343,heavy_rail,1927.0,428
520,Kitami,35.63647973243418,139.58670351849065,heavy_rail,1927.0,428
521,Izumi-Tamagawa,35.627527930367776,139.57368966818115,heavy_rail,1927.0,428
522,Noborito,35.62108828564449,139.56936712163775,heavy_rail,1927.0,428
523,Mukogaoka-Yuen,35.61724953398918,139.56453537651845,heavy_rail,1927.0,428
524,Ikuta,35.614901849068175,139.54136566657894,heavy_rail,1927.0,428
525,Yomiuriland-mae,35.61476832054451,139.52791341749332,heavy_rail,1927.0,428
526,Shin-Yurigaoka,35.60384709523433,139.50758572543697,heavy_rail,1974.0,428
527,Kakio,35.58956325704055,139.49757849180253,heavy_rail,1927.0,428
528,Tsurukawa,35.58319554371492,139.48199511345433,heavy_rail,1927.0,428
529,Tamagawagakuen-mae,35.56436008385944,139.46387910977046,heavy_rail,1929.0,428
530,Machida,35.543341356629696,139.44451055411105,heavy_rail,1927.0,428
531,Sobudai-mae,35.499087737274294,139.40823010323862,heavy_rail,1927.0,428
532,Atsugi,35.443248665721754,139.378537138958,heavy_rail,1927.0,428
533,Hon-Atsugi,35.43931253962846,139.3643560284969,heavy_rail,1927.0,428
534,Aiko-Ishida,35.41759374227476,139.3439184437022,heavy_rail,1927.0,428
535,Isehara,35.39598222208707,139.31343390409404,heavy_rail,1927.0,428
536,Tsurumaki-Onsen,35.38082952348827,139.27745922434883,heavy_rail,1927.0,428
537,Tokaidaigaku-mae,35.37314391730733,139.27108714577537,heavy_rail,1927.0,428
538,Hadano,35.37029111168138,139.22566263145717,heavy_rail,1927.0,428
539,Shibusawa,35.37415246226364,139.184846207492,heavy_rail,1927.0,428
540,Shin-Matsuda,35.344653021351945,139.13949685214732,heavy_rail,1927.0,428
541,Kayama,35.310884696009694,139.14249439990328,heavy_rail,1927.0,428
542,Tomizu,35.29627690194991,139.14534777084936,heavy_rail,1927.0,428
543,Ashigara,35.271919262895764,139.15449247192316,heavy_rail,1927.0,428
544,Koenji,35.705302565021896,139.64972810635538,heavy_rail,1922.0,458
544,Koenji,35.705302565021896,139.64972810635538,heavy_rail,1922.0,419
545,Asagaya,35.704860225738344,139.63546604549958,heavy_rail,1922.0,458
545,Asagaya,35.704860225738344,139.63546604549958,heavy_rail,1922.0,419
546,Nishi-Ogikubo,35.70379994851984,139.59933497084805,heavy_rail,1922.0,458
546,Nishi-Ogikubo,35.70379994851984,139.59933497084805,heavy_rail,1922.0,419
547,Mitaka,35.702710061844414,139.56091960356324,heavy_rail,1930.0,458
547,Mitaka,35.702710061844414,139.56091960356324,heavy_rail,1930.0,419
547,Mitaka,35.702710061844414,139.56091960356324,heavy_rail,1930.0,3000
548,Higashi-Koganei,35.701602925034265,139.5243039179271,heavy_rail,1964.0,458
549,Musashi-Koganei,35.701120350578336,139.5068229891662,heavy_rail,1926.0,458
550,Nishi-Kokubunji,35.699704486521966,139.4660147551072,heavy_rail,1973.0,458
551,Kunitachi,35.69922190057598,139.44630537932795,heavy_rail,1926.0,458
552,Nishi-Hachioji,35.65670888878543,139.31272992328093,heavy_rail,1939.0,458
552,Nishi-Hachioji,35.65670888878543,139.31272992328093,heavy_rail,1939.0,3179
553,Toro,35.931702229385664,139.6320673302177,commuter_rail,1983.0,455
553,Toro,35.931702229385664,139.6320673302177,commuter_rail,1983.0,456
554,Higashi-Omiya,35.94868443096502,139.64022545963945,commuter_rail,1964.0,455
554,Higashi-Omiya,35.94868443096502,139.64022545963945,commuter_rail,1964.0,456
555,Shiraoka,36.01739353155571,139.6668941252488,commuter_rail,1910.0,455
555,Shiraoka,36.01739353155571,139.6668941252488,commuter_rail,1910.0,456
556,Akabane,35.777964935945754,139.7203965411203,heavy_rail,1885.0,417
557,Jujo,35.7600046245173,139.7222797211459,heavy_rail,1910.0,417
558,Itabashi,35.74543081215981,139.71945890385703,heavy_rail,1885.0,417
559,池袋 Ikebukuro,35.72996830506644,139.71118626828502,heavy_rail,1972.0,478
560,Itabashi,35.7453833934564,139.71957807715452,heavy_rail,1972.0,478
561,Akabane,35.77802483457526,139.7205158477634,heavy_rail,1972.0,478
562,Jujo,35.76000463743295,139.722337099569,heavy_rail,1972.0,478
563,Musashi-Urawa,35.84582895278763,139.64616967542327,heavy_rail,1985.0,420
564,Kita-Akabane,35.7868247123466,139.70585428862788,heavy_rail,1985.0,420
565,Ukima-Funado,35.7911499380988,139.69146831765846,heavy_rail,1985.0,420
566,Toda-Koen,35.808013095951075,139.678073929367,heavy_rail,1985.0,420
567,Toda,35.817722121355246,139.66953441630687,heavy_rail,1985.0,420
568,Kita-Toda,35.827601144976924,139.6600506434453,heavy_rail,1985.0,420
569,Naka-Urawa,35.853449590334336,139.63749077310365,heavy_rail,1985.0,420
570,Minami-Yono,35.86784721743233,139.63100147333017,heavy_rail,1985.0,420
571,Yonohommachi,35.88139266684101,139.62594018343458,heavy_rail,1985.0,420
572,Kita-Yono,35.8903593806936,139.62825942676704,heavy_rail,1985.0,420
573,Omiya,35.90619076749836,139.6231445316323,heavy_rail,1985.0,420
574,Yokohama,35.466164520536104,139.62306758841305,heavy_rail,1930.0,418
575,Higashi-Kanagawa,35.47792168971708,139.63333399940558,heavy_rail,1914.0,418
576,Shin-Koyasu,35.48686748170229,139.65415832814475,heavy_rail,1943.0,418
577,Tsurumi,35.508201393092634,139.6764216220463,heavy_rail,1914.0,418
578,Kawasaki,35.531213750759946,139.6971041342295,heavy_rail,1914.0,418
579,Kamata,35.5617815914074,139.71583207055926,heavy_rail,1914.0,418
580,Omori,35.588947866114864,139.72813548209493,heavy_rail,1914.0,418
581,Oimachi,35.606450585165376,139.73488527260167,heavy_rail,1914.0,418
582,Shinagawa,35.628547183651165,139.7395059263739,heavy_rail,1914.0,418
583,Tamachi,35.64578423457921,139.74766188129678,heavy_rail,1914.0,418
584,Hamamatsucho,35.6551101685468,139.75697209675195,heavy_rail,1914.0,418
585,Shimbashi,35.666502501991594,139.75798108724055,heavy_rail,1914.0,418
586,Yurakucho,35.67502340985568,139.76299751090713,heavy_rail,1914.0,418
587,東京駅 Tokyoeki (Tokyo Railway Station),35.68126068083493,139.76649094754362,heavy_rail,1914.0,418
588,Akabane,35.77821819479455,139.7209612918288,heavy_rail,1928.0,418
588,Akabane,35.77821819479455,139.7209612918288,heavy_rail,1928.0,2366
588,Akabane,35.77821819479455,139.7209612918288,commuter_rail,1928.0,418
588,Akabane,35.77821819479455,139.7209612918288,commuter_rail,1928.0,2366
589,Omiya,35.90671553300407,139.62462701978623,heavy_rail,1932.0,418
589,Omiya,35.90671553300407,139.62462701978623,heavy_rail,1932.0,2366
589,Omiya,35.90671553300407,139.62462701978623,heavy_rail,1932.0,3000
589,Omiya,35.90671553300407,139.62462701978623,commuter_rail,1932.0,418
589,Omiya,35.90671553300407,139.62462701978623,commuter_rail,1932.0,2366
589,Omiya,35.90671553300407,139.62462701978623,commuter_rail,1932.0,3000
590,Kanda,35.69182717541332,139.7708704340962,heavy_rail,1928.0,418
591,Akihabara,35.698466182362225,139.77296532926422,heavy_rail,1928.0,418
592,Okachimachi,35.707518785699506,139.77466037917364,heavy_rail,1928.0,418
593,上野 Ueno,35.71351905461101,139.77595782713777,heavy_rail,1928.0,418
594,Uguisudani,35.721475922492324,139.77803006908368,heavy_rail,1928.0,418
595,Nippori,35.72794495039927,139.7703634892706,heavy_rail,1928.0,418
596,西日暮里 Nishi-Nippori,35.73199927045612,139.7666933903015,heavy_rail,1971.0,418
597,Tabata,35.73750282608676,139.76143776623633,heavy_rail,1928.0,418
598,Kami-Nakazato,35.746581326145005,139.74695786486524,heavy_rail,1933.0,418
599,Oji,35.75236769706175,139.73826494094973,heavy_rail,1928.0,418
600,Higashi-Jujo,35.76386442650549,139.7268722087084,heavy_rail,1931.0,418
601,Kawaguchi,35.80192414064844,139.71751549853002,heavy_rail,1932.0,418
602,Nishi-Kawaguchi,35.815582098508514,139.70446941290305,heavy_rail,1954.0,418
603,Warabi,35.828056641520234,139.69028187753605,commuter_rail,1893.0,456
603,Warabi,35.828056641520234,139.69028187753605,commuter_rail,1893.0,455
604,Warabi,35.828038891081235,139.69045912081685,heavy_rail,1932.0,418
605,Minami-Urawa,35.848072137535084,139.668810441349,heavy_rail,1961.0,418
606,Urawa,35.85907923072805,139.65732466730412,heavy_rail,1932.0,418
606,Urawa,35.85907923072805,139.65732466730412,heavy_rail,1932.0,2366
606,Urawa,35.85907923072805,139.65732466730412,commuter_rail,1932.0,418
606,Urawa,35.85907923072805,139.65732466730412,commuter_rail,1932.0,2366
607,Kita-Urawa,35.87215030164707,139.64611032830544,heavy_rail,1936.0,418
608,Yono,35.88438646842589,139.6390097886573,commuter_rail,1912.0,456
608,Yono,35.88438646842589,139.6390097886573,commuter_rail,1912.0,455
609,Yono,35.88439927257092,139.63913897804744,heavy_rail,1932.0,418
610,Saitama-Shintoshin,35.893780513014626,139.63393797619284,heavy_rail,2000.0,418
611,Totsuka,35.400769502339145,139.53413777851785,heavy_rail,1887.0,454
612,Kozu,35.28126742254938,139.21426150412736,heavy_rail,1887.0,454
613,Ofuna,35.353641520467505,139.5307617125467,heavy_rail,1887.0,454
614,Fujisawa,35.33884643510869,139.48642763539198,heavy_rail,1887.0,454
615,Tsujido,35.33683429075015,139.44628369408588,heavy_rail,1916.0,454
616,Chigasaki,35.33060980536651,139.4074821113079,heavy_rail,1898.0,454
617,Hiratsuka,35.327691882339096,139.3493936433506,heavy_rail,1887.0,454
618,Oiso,35.311335244469475,139.3132513218227,heavy_rail,1887.0,454
619,Ninomiya,35.298737687917864,139.25729153469342,heavy_rail,1902.0,454
620,Hodogaya,35.44662265382915,139.59971556121835,heavy_rail,1887.0,454
621,Odawara,35.25622469366577,139.15589612626184,heavy_rail,1920.0,454
622,Matsuda,35.34620588275223,139.13852189952138,heavy_rail,1889.0,454
623,Yamakita,35.36072499495903,139.08027696749303,heavy_rail,1889.0,454
624,Tabata,35.73779782731737,139.76237085616026,heavy_rail,1896.0,479
625,Mikawashima,35.73331186635974,139.77780803992243,heavy_rail,1905.0,479
626,南千住 Minami-Senju,35.73318513664117,139.7989492558051,heavy_rail,1896.0,479
627,北千住 Kita-Senju,35.749850248209015,139.80506171992488,heavy_rail,1896.0,479
628,Matsudo,35.78419564078702,139.90052707441097,heavy_rail,1896.0,479
629,Kashiwa,35.86196853002405,139.97074306958532,heavy_rail,1896.0,479
630,Abiko,35.87270783404762,140.01074897751647,heavy_rail,1896.0,479
631,Toride,35.896601982243226,140.0636351477105,heavy_rail,1896.0,479
632,Nippori,35.72822691080677,139.77084555583616,heavy_rail,1905.0,479
633,Kameari,35.76653770205431,139.84751382228575,heavy_rail,1897.0,479
634,Kanamachi,35.76945697689557,139.87075612512405,heavy_rail,1897.0,479
635,Kita-Matsudo,35.80055066754346,139.91166356774494,heavy_rail,1952.0,479
636,Mabashi,35.81160931466519,139.91733805811867,heavy_rail,1898.0,479
637,Shin-Matsudo,35.82549448531054,139.92113945534942,heavy_rail,1973.0,479
638,Kita-Kogane,35.83341358331724,139.93114927887672,heavy_rail,1911.0,479
639,Minami-Kashiwa,35.84463965184855,139.95409988003797,heavy_rail,1953.0,479
640,Kita-Kashiwa,35.87571631638235,139.9881238462433,heavy_rail,1972.0,479
641,Tennodai,35.87249476614424,140.04085830244924,heavy_rail,1971.0,479
642,Tobu Dobutsu-Koen,36.02467763858873,139.72660641931122,heavy_rail,1899.0,436
643,Kuki,36.06556639831216,139.6776046464393,heavy_rail,1899.0,436
644,北千住 Kita-Senju,35.74967197495263,139.80527595494,heavy_rail,1899.0,436
645,Asakusa,35.711861477996585,139.79816468326746,heavy_rail,1931.0,436
646,北千住 Kita-Senju,35.74960714292266,139.8055487171796,heavy_rail,2012.0,435
647,Tobu Dobutsu-Koen,36.02476523933568,139.7267314506089,heavy_rail,2012.0,435
648,Kazo,36.12299384090123,139.59557582331627,heavy_rail,1902.0,436
649,Kawamata,36.18769987154481,139.5290194920142,heavy_rail,1903.0,436
650,Kawamata,36.208218422202776,139.52644065666266,heavy_rail,1907.0,436
651,Azumabashi,35.71040493964005,139.80905255027187,heavy_rail,1902.0,436
652,Asakusa,35.71040510381047,139.8090547454135,heavy_rail,1910.0,436
653,Narihirabashi,35.71040537604773,139.80905357195795,heavy_rail,1931.0,436
654,Tokyo Skytree,35.71037060302879,139.80906591142923,heavy_rail,2012.0,435
655,Asakusa,35.71184906891814,139.79818469511838,heavy_rail,2012.0,435
656,Hikifune,35.71829936864388,139.81656364336902,heavy_rail,1902.0,436
657,Hikifune,35.71830422002452,139.81667418764096,heavy_rail,2012.0,435
658,Higashi-Mukojima,35.72427834599584,139.81927950181938,heavy_rail,1902.0,436
659,Higashi-Mukojima,35.724274498176584,139.81932689834014,heavy_rail,2012.0,435
660,Kanegafuchi,35.7333761785534,139.82007303459596,heavy_rail,1902.0,436
661,Kanegafuchi,35.73334539950052,139.82011095184097,heavy_rail,2012.0,435
662,Horikiri,35.74316530690241,139.8176264800477,heavy_rail,1902.0,436
663,Horikiri,35.74318069453723,139.81769283516724,heavy_rail,2012.0,435
664,Ushida,35.744636615912285,139.81214420510025,heavy_rail,1932.0,436
665,Ushida,35.7446712374346,139.81213472582442,heavy_rail,2012.0,435
666,Kosuge,35.75891377183375,139.8127816498153,heavy_rail,1924.0,436
667,Kosuge,35.75887070233904,139.8128726355746,heavy_rail,2012.0,435
668,Gotanno,35.76596488803027,139.80940362504634,heavy_rail,1924.0,436
669,Gotanno,35.766038714840704,139.80949461080564,heavy_rail,2012.0,435
670,Umejima,35.77230506304477,139.7979696792621,heavy_rail,1924.0,436
671,Umejima,35.77237888398545,139.7980985757576,heavy_rail,2012.0,435
672,Nishiarai,35.777245253970705,139.79030078649106,heavy_rail,1899.0,436
673,Nishiarai,35.77730676760933,139.7904751758852,heavy_rail,2012.0,435
674,Takenotsuka,35.79448220979407,139.790707049395,heavy_rail,1900.0,436
675,Takenotsuka,35.794426859495445,139.79094967806134,heavy_rail,2012.0,435
676,Yatsuka,35.81424468621019,139.8010774596167,heavy_rail,1925.0,436
677,Yatsuka,35.81422009219358,139.80120635611215,heavy_rail,2012.0,435
678,Soka,35.82815330699816,139.80331540614776,heavy_rail,1899.0,436
679,Soka,35.828159454420074,139.8034746312171,heavy_rail,2012.0,435
680,Dokkyodaigakumae,35.84313845292081,139.80070662069463,heavy_rail,1962.0,436
681,Dokkyodaigakumae,35.84315074544217,139.8008355171903,heavy_rail,2012.0,435
682,Shinden,35.85440765070399,139.7951878377167,heavy_rail,1899.0,436
683,Shinden,35.85445066842219,139.7953925556846,heavy_rail,2012.0,435
684,Gamo,35.86720687670349,139.79155379287909,heavy_rail,1899.0,436
685,Gamo,35.867213021098806,139.7917812572585,heavy_rail,2012.0,435
686,Shin-Koshigaya,35.87581426756289,139.78970314669613,heavy_rail,1974.0,436
687,Shin-Koshigaya,35.87580198009039,139.78983204319172,heavy_rail,2012.0,435
688,Koshigaya,35.88830785419171,139.7858470354251,heavy_rail,1920.0,436
689,Koshigaya,35.888338567996385,139.78601384265676,heavy_rail,2012.0,435
690,Kita-Koshigaya,35.902341663135374,139.77973458074803,heavy_rail,1899.0,436
691,Kita-Koshigaya,35.902341663135374,139.7798710594059,heavy_rail,2012.0,435
692,Obukuro,35.923809222794404,139.77803577728406,heavy_rail,1926.0,436
693,Obukuro,35.923815274104456,139.77814039397157,heavy_rail,2012.0,435
694,Sengendai,35.935773376203215,139.77441491331854,heavy_rail,1967.0,436
695,Sengendai,35.93576732579318,139.77451205740692,heavy_rail,2012.0,435
696,Takesato,35.9487547129074,139.77061650624722,heavy_rail,1899.0,436
697,Takesato,35.94877286112313,139.77070617769903,heavy_rail,2012.0,435
698,Ichinowari,35.96421986720614,139.7660512389353,heavy_rail,1926.0,436
699,Ichinowari,35.964238011853766,139.76613343778791,heavy_rail,2012.0,435
700,Kasukabe,35.979989736641,139.75213505499232,heavy_rail,1899.0,436
701,Kasukabe,35.980219522734004,139.75227703478794,heavy_rail,2012.0,435
702,Kita-Kasukabe,35.990057101248226,139.74408182493937,heavy_rail,1966.0,436
703,Kita-Kasukabe,35.99007523995704,139.74425369520645,heavy_rail,2012.0,435
704,Himemiya,36.00408953029333,139.73886262012667,heavy_rail,1927.0,436
705,Himemiya,36.00410766579036,139.7389597641777,heavy_rail,2012.0,435
706,Wado,36.039839448785344,139.7009331352201,heavy_rail,1899.0,436
707,Washinomiya,36.09641645394301,139.65680735506152,heavy_rail,1902.0,436
708,Hanasaki,36.10989073748093,139.63356504870274,heavy_rail,1927.0,436
709,Minami-Hanyu,36.14975297661297,139.5566502965121,heavy_rail,1903.0,436
710,Hanyu,36.17027152690943,139.53405749270502,heavy_rail,1903.0,436
711,Shin-Shiraoka,36.03857603226453,139.67201429590807,commuter_rail,1987.0,455
711,Shin-Shiraoka,36.03857603226453,139.67201429590807,commuter_rail,1987.0,456
712,Higashi-Washinomiya,36.089372126891774,139.67948465415492,commuter_rail,1981.0,455
712,Higashi-Washinomiya,36.089372126891774,139.67948465415492,commuter_rail,1981.0,456
713,Miyahara,35.94019552806934,139.6094605861402,heavy_rail,1948.0,457
714,Kita-Ageo,35.98554367939124,139.57724989451054,heavy_rail,1988.0,457
715,Okegawa,35.99864409333992,139.5640223610311,heavy_rail,1885.0,457
716,Kitamoto,36.03147923650715,139.5339711115575,heavy_rail,1928.0,457
717,Kita-Konosu,36.08557935854347,139.47683095556238,heavy_rail,1984.0,457
718,Fukiage,36.10315198581097,139.4531629762211,heavy_rail,1885.0,457
719,Gyoda,36.11403255748036,139.43199843154275,heavy_rail,1966.0,457
720,Inokashira-Koen,35.697507460270344,139.58282591873154,heavy_rail,1933.0,425
721,Kichioji,35.70248736805287,139.5801678219785,heavy_rail,1934.0,425
722,Shibuya,35.658808832323544,139.6997000138137,heavy_rail,1933.0,425
723,Shinsen,35.657235219769404,139.69364216030797,heavy_rail,1933.0,425
724,Komaba-Todaimae,35.65887181061042,139.68337588686984,heavy_rail,1965.0,425
725,Ikenoue,35.6605282919882,139.67298191624633,heavy_rail,1933.0,425
726,Shimo-Kitazawa,35.66149337908293,139.66746777843915,heavy_rail,1933.0,425
727,Shindaita,35.66259319639879,139.66107953062374,heavy_rail,1933.0,425
728,Higashi-Matsubara,35.66263872638906,139.65571349127453,heavy_rail,1933.0,425
729,Meidaimae,35.66853756804281,139.65050207191632,heavy_rail,1933.0,425
730,Eifukucho,35.67622581026501,139.64271604775882,heavy_rail,1933.0,425
731,Nishi-Eifuku,35.678743113357555,139.63548262541462,heavy_rail,1933.0,425
732,Hamadayama,35.68167474763678,139.62733925131118,heavy_rail,1933.0,425
733,Takaido,35.68328314590123,139.61502917330438,heavy_rail,1933.0,425
734,Fujimigaoka,35.684875708697334,139.60685973834666,heavy_rail,1933.0,425
735,Kugayama,35.68792937051322,139.59963469216171,heavy_rail,1933.0,425
736,Mitakadai,35.69219202520789,139.58900282253217,heavy_rail,1933.0,425
737,上野 Ueno,35.71352399714502,139.77705042992125,heavy_rail,1905.0,479
738,Kanagawa,35.47101915841801,139.62564902007205,heavy_rail,1926.0,444
739,Tamagawa,35.589604405126266,139.66865926288148,heavy_rail,1926.0,444
740,渋谷 Shibuya,35.65867690125801,139.7026920242449,heavy_rail,1927.0,444
741,Sakuragicho,35.45104912748441,139.63064069302365,heavy_rail,1932.0,444
742,Takashimacho,35.46056248943273,139.62289657799138,heavy_rail,1928.0,444
743,Yokohama,35.46624243363717,139.62211481756052,heavy_rail,1928.0,444
744,Tammachi,35.474535373897744,139.6253198512565,heavy_rail,1926.0,444
745,Higashi-Hakuraku,35.48323157389808,139.62948345379868,heavy_rail,1927.0,444
746,Hakuraku,35.48954521118208,139.6278515566441,heavy_rail,1926.0,444
747,Myorenji,35.49836079027391,139.6332529668366,heavy_rail,1926.0,444
748,Kikuna,35.51014961485525,139.63134263948086,heavy_rail,1926.0,444
749,Okurayama,35.52183291482085,139.62986145251404,heavy_rail,1926.0,444
750,Tsunashima,35.536746419858545,139.63466558173036,heavy_rail,1926.0,444
751,Hiyoshi,35.55342236348717,139.64677843535475,heavy_rail,1926.0,444
752,Motosumiyoshi,35.56450275851829,139.6540006255255,heavy_rail,1926.0,444
753,Musashi-Kosugi,35.57621976313929,139.65972158401144,heavy_rail,1927.0,444
754,Shin-Maruko,35.580622280644405,139.6618751699438,heavy_rail,1926.0,444
755,Den-en-chofu,35.59688069577362,139.6672411489626,heavy_rail,1927.0,444
756,Jiyugaoka,35.60757230184544,139.66882717030808,heavy_rail,1927.0,444
757,Toritsu-Daigaku,35.617566743076466,139.6761765961753,heavy_rail,1927.0,444
758,Gakugei-Daigaku,35.6289085119718,139.6853720896999,heavy_rail,1927.0,444
759,Yutenji,35.63755906727759,139.69104841682218,heavy_rail,1927.0,444
760,中目黒 Naka-Meguro,35.64434673045497,139.69905899416963,heavy_rail,1927.0,444
760,中目黒 Naka-Meguro,35.64434673045497,139.69905899416963,heavy_rail,1927.0,326
761,Daikan-yama,35.64815689958336,139.703270624397,heavy_rail,1927.0,444
762,Shin-Matsudo,35.82575799853637,139.92068790832388,heavy_rail,1973.0,492
763,Fuchu-Hommachi,35.66607727607719,139.47710361660268,heavy_rail,1973.0,492
764,Kita-Fuchu,35.68078539220987,139.47179800509747,heavy_rail,1973.0,492
765,Nishi-Kokubunji,35.69996860884032,139.46601274850912,heavy_rail,1973.0,492
766,Shin-Kodaira,35.73094599587171,139.470555806233,heavy_rail,1973.0,492
767,Shin-Akitsu,35.77837780929818,139.49373563335263,heavy_rail,1973.0,492
768,Higashi-Tokorozawa,35.7945774435332,139.51381250866018,heavy_rail,1973.0,492
769,Niiza,35.80369536538069,139.55629737556944,heavy_rail,1973.0,492
770,Kita-Asaka,35.815341643184354,139.58697490024483,heavy_rail,1973.0,492
771,Nishi-Urawa,35.84418400038038,139.62792912768015,heavy_rail,1973.0,492
772,Musashi-Urawa,35.846435923079085,139.64611011297546,heavy_rail,1985.0,492
773,Minami-Urawa,35.84777147448751,139.66921216441682,heavy_rail,1973.0,492
774,Higashi-Urawa,35.86436929425892,139.7052051440951,heavy_rail,1973.0,492
775,Higashi-Kawaguchi,35.875342929546434,139.7443559770108,heavy_rail,1973.0,492
776,Minami-Koshigaya,35.876002716846415,139.79094887661495,heavy_rail,1973.0,492
777,Koshigaya-Laketown,35.87620683470308,139.82164198480967,heavy_rail,2008.0,492
778,Yoshikawa,35.87655971853077,139.8433634935633,heavy_rail,1973.0,492
779,Yoshikawa-Minami,35.86817994811338,139.85814245015916,heavy_rail,2012.0,492
780,Shin-Misato,35.85870438018645,139.86931185959045,heavy_rail,1985.0,492
781,Misato,35.84484984714946,139.88703981170937,heavy_rail,1973.0,492
782,Minami-Nagareyama,35.83800365808463,139.9039134502401,heavy_rail,1973.0,492
783,Shin-Yahashira,35.79193720324666,139.93839276526353,heavy_rail,1978.0,492
784,Higashi-Matsudo,35.770430469605174,139.94394140220038,heavy_rail,1998.0,492
785,Ichikawaono,35.75535987197897,139.9512881943026,heavy_rail,1978.0,492
786,Funabashihoten,35.73086396396734,139.9665609907139,heavy_rail,1978.0,492
787,Noborito,35.620946214202235,139.5697251923105,heavy_rail,1927.0,493
788,Minami-Tama,35.64924665152844,139.48982578508304,heavy_rail,1927.0,493
789,Bubaigawara,35.66849262723399,139.46911855462758,heavy_rail,1928.0,493
790,Hama-Kawasaki,35.51026660668715,139.7142215785252,heavy_rail,1930.0,493
791,Odasakae,35.51437628833014,139.70524730010692,heavy_rail,2016.0,493
792,Kawasaki-Shimmachi,35.518261835992504,139.69954440742896,heavy_rail,1930.0,493
793,Hatchonawate,35.52305747610919,139.69150358086796,heavy_rail,1930.0,493
794,Shitte,35.531206209937125,139.68413442810146,heavy_rail,1929.0,493
795,Kawasaki,35.531479429410126,139.69670766170907,heavy_rail,1927.0,493
796,Yako,35.53961806693985,139.6803700657365,heavy_rail,1927.0,493
797,Kashimada,35.55183737886762,139.67488623990812,heavy_rail,1927.0,493
798,Hirama,35.56093898751638,139.67095379801577,heavy_rail,1927.0,493
799,Mukaigawara,35.57262039920852,139.6672471935841,heavy_rail,1927.0,493
800,Musashi-Kosugi,35.57662664585101,139.66048386694462,heavy_rail,1927.0,493
801,Musashi-Nakahara,35.58103878570836,139.6415452707726,heavy_rail,1927.0,493
802,Musashi-Shinjo,35.58713718064594,139.62994392551752,heavy_rail,1927.0,493
803,Musashi-Mizonokuchi,35.59906144440282,139.61112801349094,heavy_rail,1927.0,493
804,Tsudayama,35.60391872529928,139.60039419318628,heavy_rail,1941.0,493
805,Kuji,35.609862607020546,139.5935163860301,heavy_rail,1927.0,493
806,Shukugawara,35.61539016449986,139.57960139673298,heavy_rail,1927.0,493
807,Nakanoshima,35.63008220713084,139.5507998609994,heavy_rail,1927.0,493
808,Inadazutsumi,35.633493860765725,139.5356083894966,heavy_rail,1927.0,493
809,Yanokuchi,35.64162928141528,139.52059841725162,heavy_rail,1927.0,493
810,Inagi-Naganuma,35.644442293376,139.5021954677752,heavy_rail,1927.0,493
811,Nishifu,35.6708531828892,139.45751364356414,heavy_rail,2009.0,493
812,Yaho,35.68145572770399,139.44661954726564,heavy_rail,1929.0,493
813,Yagawa,35.68500168264973,139.43221343675202,heavy_rail,1932.0,493
814,Nishi-Kunitachi,35.69327922588636,139.42410817115348,heavy_rail,1929.0,493
815,Tachikawa,35.69785069106621,139.41354673684316,heavy_rail,1929.0,493
816,Keisei Takasago,35.75095051171421,139.8673420940233,heavy_rail,1912.0,426
817,Edogawa,35.73772861648693,139.89614745111135,heavy_rail,1912.0,426
818,Ichikawamama,35.73148804275263,139.91145727456308,heavy_rail,1914.0,426
819,Keisei Nakayama,35.71670824489844,139.9451272460244,heavy_rail,1915.0,426
820,Keisei Funabashi,35.70022555286258,139.98564245379634,heavy_rail,1916.0,426
821,Keisei Tsudanuma,35.68366606247076,140.02454721310102,heavy_rail,1921.0,426
822,Narita-Hanasakicho,35.77471201920223,140.31317807356055,heavy_rail,1926.0,426
823,Keisei Narita,35.77638189959893,140.31546944537553,heavy_rail,1930.0,426
823,Keisei Narita,35.77638189959893,140.31546944537553,heavy_rail,1930.0,2309
824,Keisei-Ueno,35.71097030683857,139.7736059307206,heavy_rail,1933.0,426
825,Nippori,35.72810455989926,139.77127546124203,heavy_rail,1933.0,426
826,Dokanyama Dori,35.73316556190338,139.76862220137937,heavy_rail,1934.0,426
827,Nishi-Senju,35.74440637239668,139.7930284649055,heavy_rail,1935.0,426
828,Aoto,35.7456950472774,139.856173282921,heavy_rail,1928.0,426
829,Higashi-Narita,35.77012453839249,140.38707552694413,heavy_rail,1978.0,426
829,Higashi-Narita,35.77012453839249,140.38707552694413,heavy_rail,1978.0,2309
830,池袋 Ikebukuro,35.729984767797234,139.71115073906566,heavy_rail,1985.0,420
831,Itabashi,35.74540688202691,139.71951628650334,heavy_rail,1985.0,420
832,Jujo,35.76000390103728,139.72230555649537,heavy_rail,1985.0,420
833,Shin-Mikawashima,35.737205784942816,139.77391621644256,heavy_rail,1931.0,426
834,町屋 Machiya,35.74227706732105,139.78144082203653,heavy_rail,1931.0,426
835,Senjuohashi,35.742375855714286,139.79697740843704,heavy_rail,1931.0,426
836,Keisei Sekiya,35.74399085804612,139.81173534227003,heavy_rail,1931.0,426
837,Horikirishobuen,35.74767430698745,139.82750888204913,heavy_rail,1931.0,426
838,Ohanajaya,35.74757862005407,139.84017291085934,heavy_rail,1931.0,426
839,Keisei Koiwa,35.74233197068841,139.88362860435433,heavy_rail,1932.0,426
840,Konodai,35.73646371173089,139.9023772569247,heavy_rail,1914.0,426
841,Sugano,35.728229366344905,139.91955582247482,heavy_rail,1916.0,426
842,Keisei Yawata,35.72390272860892,139.9281066868365,heavy_rail,1915.0,426
843,Onigoe,35.7200902028773,139.9372985698912,heavy_rail,1935.0,426
844,Higashi-Nakayama,35.71442996549948,139.95284019894103,heavy_rail,1953.0,426
845,Keisei Nishifuna,35.711646470042936,139.9590381480458,heavy_rail,1916.0,426
846,Kaijin,35.70572197085957,139.97215550331674,heavy_rail,1919.0,426
847,Daijingushita,35.69426226232653,139.99126481888027,heavy_rail,1921.0,426
848,Funabashi-Keibajo,35.68976524038722,139.99797694464053,heavy_rail,1927.0,426
849,Yatsu,35.68528788542295,140.00753148889618,heavy_rail,1921.0,426
850,Keisei Okubo,35.685959726613405,140.0480637767223,heavy_rail,1926.0,426
851,Mimomi,35.68691395451029,140.0684705277866,heavy_rail,1926.0,426
852,Yachiyodai,35.70130757846246,140.09070883650128,heavy_rail,1956.0,426
853,Keisei Owada,35.71206940411663,140.10798091429376,heavy_rail,1926.0,426
854,Katsutadai,35.715468352935176,140.1261257419535,heavy_rail,1968.0,426
855,Shizu,35.717439773201306,140.14497737051903,heavy_rail,1928.0,426
856,Yurigaoka,35.72156659141972,140.15595947511127,heavy_rail,1982.0,426
857,Keisei Usui,35.72992555565837,140.18065898757123,heavy_rail,1926.0,426
858,Keisei Sakura,35.7252106537006,140.22973140655415,heavy_rail,1926.0,426
859,Osakura,35.73011247613853,140.25110889480175,heavy_rail,1926.0,426
860,Keisei Shisui,35.73679695647958,140.27003283022327,heavy_rail,1926.0,426
861,Sogosando,35.75256513423302,140.28093262465268,heavy_rail,1928.0,426
862,Kozunomori,35.760490077046285,140.295251841567,heavy_rail,1994.0,426
863,Narita Airport Terminal 2·3,35.77274203745581,140.38768792003225,heavy_rail,1992.0,426
864,Narita Airport Terminal 1,35.76524612595907,140.3862428570041,heavy_rail,1991.0,426
865,押上 Oshiage (Skytree),35.71104001223103,139.81313978581977,heavy_rail,1912.0,496
866,Keisei Hikifune,35.71869881402718,139.8203679068652,heavy_rail,1912.0,496
867,Yahiro,35.72717802184316,139.82835051092684,heavy_rail,1923.0,496
868,Yotsugi,35.73173740562244,139.83477961419914,heavy_rail,1912.0,496
869,Keisei Tateishi,35.73819770260258,139.84804412101482,heavy_rail,1912.0,496
870,Hikifune,35.718300458902505,139.81681881858628,heavy_rail,1904.0,497
871,Omurai,35.710266060394034,139.82781368749727,heavy_rail,1928.0,497
872,Higashi-Azuma,35.707060325615515,139.83176663770627,heavy_rail,1928.0,497
873,Kameidosujin,35.700043454716095,139.8335360827727,heavy_rail,1928.0,497
874,Kameido,35.697675453019386,139.8269909153069,heavy_rail,1904.0,497
875,Keisei Kanamachi,35.768673883459456,139.87033072844707,heavy_rail,1913.0,498
876,Shibamata,35.756416854203906,139.87516690934962,heavy_rail,1913.0,498
877,Keisei Takasago,35.751045280752294,139.86733078731905,heavy_rail,1913.0,498
878,Chiba-Kamotsu Terminal,35.62018439737683,140.0889998422404,heavy_rail,1986.0,422
879,Chiba-Minato,35.607029557675915,140.10272144968474,heavy_rail,1986.0,422
880,Soga,35.58143073731077,140.13112828099722,heavy_rail,1988.0,422
881,Tokyo eki,35.677890895381424,139.76412076077156,heavy_rail,1990.0,422
882,Hatchobori,35.67462892366435,139.77766522004745,heavy_rail,1990.0,422
883,Etchujima,35.667922332979444,139.79267617039636,heavy_rail,1990.0,422
884,Shiomi,35.65892109997776,139.8172442933854,heavy_rail,1990.0,422
885,Kasairinkaikoen,35.64440669846728,139.861580064804,heavy_rail,1988.0,422
886,Maihama,35.63626306354047,139.88361299813977,heavy_rail,1988.0,422
887,Shin-Urayasu,35.64954329183746,139.9124860256021,heavy_rail,1988.0,422
888,Ichikawashiohama,35.6666289839052,139.9236407899047,heavy_rail,1988.0,422
889,Futamatashimmachi,35.69137624308884,139.95953772965203,heavy_rail,1988.0,422
890,Minami-Funabashi,35.68199262260323,139.99558797474282,heavy_rail,1986.0,422
891,Shin-Narashino,35.66735096568533,140.01293699428334,heavy_rail,1986.0,422
892,Kaihimmakuhari,35.64845071748654,140.04192814734773,heavy_rail,1986.0,422
893,Kemigawahama,35.63719253012654,140.05907011437023,heavy_rail,1986.0,422
894,Inagekaigan,35.62948933429641,140.07354649010455,heavy_rail,1986.0,422
895,Shibuya,35.6594344059782,139.70114674106233,heavy_rail,2000.0,439
896,Ikebukuro,35.72760396752079,139.71079399555015,heavy_rail,1915.0,430
897,Shiinamachi,35.72642592941271,139.69488524765313,heavy_rail,1924.0,430
898,Higashi-Nagasaki,35.730352012650684,139.6828709402545,heavy_rail,1915.0,430
899,Ekoda,35.73758331976582,139.672725720208,heavy_rail,1922.0,430
900,Sakuradai,35.73875940508246,139.6623917755079,heavy_rail,1936.0,430
901,練馬 Nerima,35.73787282836528,139.6541526306565,heavy_rail,1915.0,430
901,練馬 Nerima,35.73787282836528,139.6541526306565,heavy_rail,1915.0,540
901,練馬 Nerima,35.73787282836528,139.6541526306565,heavy_rail,1915.0,539
902,Nakamurabashi,35.73680432365994,139.637813302001,heavy_rail,1924.0,430
903,Fujimidai,35.735920337669256,139.62972716756747,heavy_rail,1925.0,430
904,Nerima-Takanodai,35.740914036156965,139.61629942558375,heavy_rail,1994.0,430
905,Shakuji-koen,35.74367272523253,139.60649259082686,heavy_rail,1915.0,430
906,Oizumi-gakuen,35.74950250944019,139.58654546012008,heavy_rail,1924.0,430
907,Hoya,35.74828094950779,139.5677831768573,heavy_rail,1915.0,430
908,Hibarigaoka,35.751570435109585,139.54555318577837,heavy_rail,1924.0,430
909,Higashi-Kurume,35.76026453756282,139.5340541221804,heavy_rail,1915.0,430
910,Kiyose,35.77205598636125,139.51995794593313,heavy_rail,1924.0,430
911,Akitsu,35.77848494872359,139.4967168714166,heavy_rail,1917.0,430
912,Tokorozawa,35.78712639381766,139.47352658992378,heavy_rail,1915.0,430
913,Nishi-Tokorozawa,35.788923636066585,139.4562531108046,heavy_rail,1915.0,430
914,Kotesashi,35.80061937529206,139.43781725246998,heavy_rail,1970.0,430
915,Sayamagaoka,35.810534277739535,139.4165568517343,heavy_rail,1915.0,430
916,Musashi-Fujisawa,35.82120901259958,139.41259851117502,heavy_rail,1926.0,430
917,Inariyama-koen,35.844760736992285,139.39929330117508,heavy_rail,1933.0,430
918,Irumashi,35.84269879256348,139.39004134971117,heavy_rail,1915.0,430
919,Bushi,35.8376717895235,139.36012488543577,heavy_rail,1915.0,430
920,Motokaji,35.840429376539106,139.34551086919907,heavy_rail,1926.0,430
921,Hanno,35.85104406208792,139.31898172520533,heavy_rail,1915.0,430
922,Higashi-Hanno,35.85258466754054,139.32594764520422,heavy_rail,1931.0,430
923,Koma,35.88204005708849,139.30428401990127,heavy_rail,1929.0,430
924,Musashi-Yokote,35.885154241658114,139.28078059110084,heavy_rail,1929.0,430
925,Higashi-Agano,35.892034302638635,139.26051030172857,heavy_rail,1929.0,430
926,Agano,35.90828618472332,139.22586961114604,heavy_rail,1929.0,430
927,Ogawamachi,36.058761092709815,139.2606546286143,heavy_rail,1923.0,438
928,寄居  Yorii,36.11758704178915,139.1938780226899,heavy_rail,1925.0,438
929,Kita-Sakado,35.971850412479455,139.3965676878783,heavy_rail,1973.0,438
930,Takasaka,36.00265808724045,139.39769763175832,heavy_rail,1923.0,438
931,Higashi-Matsuyama,36.03482308525575,139.40155773234238,heavy_rail,1923.0,438
932,Shinrinkoen,36.045176726103904,139.37503720723595,heavy_rail,1971.0,438
933,Tsukinowa,36.04350501165642,139.3454286501053,heavy_rail,2002.0,438
934,Musashi-Ranzan,36.0443665847739,139.32780722904675,heavy_rail,1923.0,438
935,Tobu-Takezawa,36.07513041727951,139.2375142964819,heavy_rail,1932.0,438
936,Obusuma,36.10746145733346,139.23415545371813,heavy_rail,1925.0,438
937,Hachigata,36.113872755403776,139.20902457683206,heavy_rail,1925.0,438
938,Tamayodo,36.11702748881524,139.20033159717875,heavy_rail,1934.0,438
939,渋谷 Shibuya,35.65942869311469,139.70114349133885,heavy_rail,1977.0,502
940,Shibuya,35.65944462914355,139.70114164731712,light_rail,1907.0,976
941,Ikejiri-Ohashi,35.65066171839122,139.684540041209,heavy_rail,1977.0,502
942,Ikejiri-Ohashi,35.65064349551237,139.68456246698997,heavy_rail,2000.0,439
943,Sangen-jaya,35.643557099431376,139.67124825485627,light_rail,1907.0,976
944,Sangen-jaya,35.643545546918844,139.6712602259666,heavy_rail,1977.0,502
945,Sangen-jaya,35.64353885863487,139.67126621152175,heavy_rail,2000.0,439
946,Komazawa-daigaku,35.63351828501604,139.6617662387353,heavy_rail,1977.0,502
947,Komazawa-daigaku,35.633506989239194,139.6617737223193,heavy_rail,2000.0,439
948,Sakura-shimmachi,35.63169396990891,139.64519817077826,heavy_rail,1977.0,502
949,Sakura-shimmachi,35.631701326949944,139.64519651596316,heavy_rail,2000.0,439
950,Yoga,35.62665790207498,139.6341554981018,light_rail,1907.0,976
951,Yoga,35.62665350127027,139.6341597091196,heavy_rail,1977.0,502
952,Yoga,35.6266549628547,139.63415771037535,heavy_rail,2000.0,439
953,Futako-Tamagawa,35.61193499399781,139.62695875614958,light_rail,1927.0,501
954,Futako-Tamagawa,35.61193160115613,139.62695958968266,heavy_rail,1977.0,502
955,Futako-Tamagawa,35.611933781735814,139.62696009261157,heavy_rail,1963.0,439
956,Futako-Tamagawa,35.61193132858151,139.6269683068842,heavy_rail,1929.0,442
957,Futako-Tamagawa,35.61193337288269,139.62696612758378,heavy_rail,1979.0,442
958,Futako-Tamagawa,35.61193583231017,139.62696046074285,light_rail,1907.0,976
959,Futago,35.60715,139.6225805611836,light_rail,1927.0,501
959,Futago,35.60715,139.6225805611836,light_rail,1927.0,442
959,Futago,35.60715,139.6225805611836,heavy_rail,1927.0,501
959,Futago,35.60715,139.6225805611836,heavy_rail,1927.0,442
960,Futako-Shinchi,35.60715081776363,139.62257798835086,heavy_rail,1963.0,439
961,Takatsu,35.60325534251516,139.6171126022203,light_rail,1927.0,501
961,Takatsu,35.60325534251516,139.6171126022203,light_rail,1927.0,442
961,Takatsu,35.60325534251516,139.6171126022203,heavy_rail,1927.0,501
961,Takatsu,35.60325534251516,139.6171126022203,heavy_rail,1927.0,442
962,Takatsu,35.60326064484616,139.61711053283432,heavy_rail,1963.0,439
963,Mizonokuchi,35.59984008791456,139.6104335164939,light_rail,1927.0,501
963,Mizonokuchi,35.59984008791456,139.6104335164939,light_rail,1927.0,442
963,Mizonokuchi,35.59984008791456,139.6104335164939,heavy_rail,1927.0,501
963,Mizonokuchi,35.59984008791456,139.6104335164939,heavy_rail,1927.0,442
964,Mizonokuchi,35.599840954141214,139.6104315087627,heavy_rail,1963.0,439
965,Kajigaya,35.593725580478065,139.60555063230726,heavy_rail,1966.0,439
966,Miyazakidai,35.58702741009131,139.59057332373834,heavy_rail,1966.0,439
967,Miyamaedaira,35.585019105246545,139.5822679180527,heavy_rail,1966.0,439
968,Saginuma,35.57949595940255,139.5728129525607,heavy_rail,1966.0,439
969,Tama-Plaza,35.57754055964594,139.55887844197713,heavy_rail,1966.0,439
970,Azamino,35.568326824251656,139.55333843674862,heavy_rail,1977.0,439
971,Eda,35.55852782387616,139.55138518769883,heavy_rail,1966.0,439
972,Ichigao,35.55109441766352,139.54106657503195,heavy_rail,1966.0,439
973,Fujigaoka,35.54349670344983,139.52800802219446,heavy_rail,1966.0,439
974,Aobadai,35.54291078830501,139.5170817128249,heavy_rail,1966.0,439
975,Tana,35.53609555472244,139.50477013369704,heavy_rail,1966.0,439
976,Nagatsuta,35.531822340459044,139.49512917910602,heavy_rail,1966.0,439
977,Tsukishino,35.527127176705406,139.48495540068723,heavy_rail,1968.0,439
978,Suzukakedai,35.5169980564054,139.48175811965945,heavy_rail,1972.0,439
979,Minami-Machida,35.511460374096,139.47004410016234,heavy_rail,1976.0,439
980,Tsukimino,35.510376554936485,139.45819964016954,heavy_rail,1976.0,439
981,Chuo-Rinkan,35.507451680471604,139.44417521886493,heavy_rail,1984.0,439
982,Kaminoge,35.61190703800425,139.6390678551229,heavy_rail,1929.0,442
983,Kaminoge,35.61191982740492,139.63908162021272,heavy_rail,1963.0,439
984,Kaminoge,35.611912352574265,139.63907539113063,heavy_rail,1979.0,442
985,Oyamadai,35.60712838049723,139.6533951939099,heavy_rail,1930.0,442
986,Oyamadai,35.60711710272754,139.65339172608566,heavy_rail,1963.0,439
987,Oyamadai,35.60713683881488,139.6533951939099,heavy_rail,1979.0,442
988,Todoroki,35.60852598512388,139.64742943840326,heavy_rail,1929.0,442
989,Todoroki,35.608535811845144,139.64743145285,heavy_rail,1963.0,439
990,Todoroki,35.60853089848467,139.64742943840326,heavy_rail,1979.0,442
991,Kuhombutsu,35.60541432253494,139.66117210910886,heavy_rail,1929.0,442
992,Kuhombutsu,35.60542511818714,139.6611745232977,heavy_rail,1963.0,439
993,Kuhombutsu,35.60542757054371,139.6611760964185,heavy_rail,1979.0,442
994,Jiyugaoka,35.60754646807472,139.6692476235932,heavy_rail,1929.0,442
995,Jiyugaoka,35.607558196053034,139.6692438029723,heavy_rail,1963.0,439
996,Jiyugaoka,35.60755464453699,139.66924754720625,heavy_rail,1979.0,442
997,Midorigaoka,35.606576062739435,139.67896820567285,heavy_rail,1929.0,442
998,Midorigaoka,35.606567266897244,139.67896666015434,heavy_rail,1979.0,442
999,Midorigaoka,35.60657983239602,139.67898211523908,heavy_rail,1963.0,439
1000,Kita-Senzoku,35.60627941866878,139.6933933112251,heavy_rail,1928.0,442
1001,Kita-Senzoku,35.60630254157931,139.69341092858184,heavy_rail,1963.0,439
1002,Kita-Senzoku,35.60628928683151,139.69340440746282,heavy_rail,1979.0,442
1003,Hatanodai,35.60486330440256,139.70274552103265,heavy_rail,1927.0,442
1004,Hatanodai,35.604871562095326,139.70275440791363,heavy_rail,1963.0,439
1005,Hatanodai,35.6048560789323,139.70273790373142,heavy_rail,1979.0,442
1006,Ebaramachi,35.60385951951484,139.70757959810237,heavy_rail,1927.0,442
1007,Ebaramachi,35.60387310896796,139.70757959810237,heavy_rail,1963.0,439
1008,Ebaramachi,35.603865181790084,139.70757820527132,heavy_rail,1979.0,442
1009,Nakanobu,35.60573881150847,139.71264263028053,heavy_rail,1927.0,442
1010,Nakanobu,35.60574630725428,139.71263156700417,heavy_rail,1963.0,439
1011,Nakanobu,35.605741461421104,139.71263707584086,heavy_rail,1979.0,442
1012,Togoshi-koen,35.60895200746917,139.71831946211944,heavy_rail,1927.0,442
1013,Togoshi-koen,35.60896286147627,139.71831768209665,heavy_rail,1963.0,439
1014,Togoshi-koen,35.60896286147627,139.71832925244058,heavy_rail,1979.0,442
1015,Shimo-Shimmei,35.60872824829907,139.72640663163048,heavy_rail,1927.0,442
1016,Shimo-Shimmei,35.60874561476116,139.72641731194506,heavy_rail,1963.0,439
1017,Shimo-Shimmei,35.60873765512777,139.7264155318867,heavy_rail,1979.0,442
1018,Oimachi,35.60755219730552,139.7343769354348,heavy_rail,1927.0,442
1019,Oimachi,35.60757213613883,139.7343791649206,heavy_rail,1963.0,439
1020,Oimachi,35.60756216672735,139.7343791649206,heavy_rail,1979.0,442
1021,Ohashi,35.651803681139555,139.6868113689003,light_rail,1907.0,976
1022,Tamaden-Ikejiri,35.64933195749917,139.68196977059768,light_rail,1907.0,976
1023,Mishuku,35.64708642254702,139.67778649840966,light_rail,1907.0,976
1024,Tamaden-Nakazato,35.639278460537795,139.66773081809652,light_rail,1921.0,976
1025,Kamiuma,35.635794420293664,139.66503746987496,light_rail,1907.0,976
1026,Manaka,35.633528132587685,139.66175432479554,light_rail,1924.0,976
1027,Komazawa,35.63110030561454,139.6565822404067,light_rail,1907.0,976
1028,Tsurumaki,35.631163411207524,139.6505033947803,light_rail,1924.0,976
1029,Sakura-Shimmachi,35.6315405632711,139.6440060717673,light_rail,1907.0,976
1030,Tamaden-Seta,35.62057302645297,139.63074355662127,light_rail,1907.0,976
1031,Minobusan-Betsuin-mae,35.61710363194344,139.62954362338485,light_rail,1933.0,976
1032,Hatagaya,35.676852644740684,139.6769726070069,heavy_rail,1913.0,424
1033,Sasazuka,35.67362376076095,139.66706060701068,heavy_rail,1913.0,424
1034,Hatsudai,35.68119055182793,139.68759071591802,heavy_rail,1914.0,424
1035,Shinjuku,35.68958387663028,139.69936605154902,heavy_rail,1915.0,424
1036,Chofu,35.651893559514534,139.54419349069292,heavy_rail,1913.0,424
1037,Fuchu,35.67218224983374,139.48020567046154,heavy_rail,1916.0,424
1038,Keio-Hachioji,35.65771280996498,139.34341881639443,heavy_rail,1925.0,424
1039,Daitabashi,35.67115073987598,139.65959611946676,heavy_rail,1913.0,424
1040,Meidaimae,35.66836961065572,139.65060296773368,heavy_rail,1913.0,424
1041,Shimo-Takaido,35.666090293819366,139.64252741936588,heavy_rail,1913.0,424
1042,Sakurajosui,35.66757136054868,139.6318235782809,heavy_rail,1926.0,424
1043,Kami-Kitazawa,35.66883725587384,139.6232914730819,heavy_rail,1913.0,424
1044,Hachimanyama,35.66985480659152,139.61601963200917,heavy_rail,1918.0,424
1045,Roka-koen,35.67066196944758,139.6088946640989,heavy_rail,1913.0,424
1046,Chitose-Karasuyama,35.66777608088802,139.60010386254248,heavy_rail,1913.0,424
1047,Sengawa,35.66232518668744,139.58493755594424,heavy_rail,1913.0,424
1048,Tsutsujigaoka,35.65810568519284,139.57526021156923,heavy_rail,1913.0,424
1049,Shibasaki,35.654096822383565,139.5666966391426,heavy_rail,1913.0,424
1050,Kokuryo,35.65026195637385,139.55848949239245,heavy_rail,1913.0,424
1051,Fuda,35.64990691130025,139.55168149801756,heavy_rail,1917.0,424
1052,Nishi-Chofu,35.65701677262152,139.53014625430018,heavy_rail,1916.0,424
1053,Tobitakyu,35.66015908257714,139.5233177029196,heavy_rail,1916.0,424
1054,Musashinodai,35.664226495404606,139.5109346571747,heavy_rail,1916.0,424
1055,Tama-reien,35.66621841396642,139.5026448822033,heavy_rail,1916.0,424
1056,Higashi-Fuchu,35.668863228847655,139.4952679177291,heavy_rail,1916.0,424
1057,Bubaigawara,35.66850120040705,139.4685104103167,heavy_rail,1925.0,424
1058,Nakagawara,35.65961046870481,139.45795480491626,heavy_rail,1925.0,424
1059,Seiseki-Sakuragaoka,35.65088459382763,139.44737464128127,heavy_rail,1925.0,424
1060,Mogusaen,35.657427753225875,139.43139245436146,heavy_rail,1925.0,424
1061,Takahatafudo,35.66213614534142,139.4134040233876,heavy_rail,1925.0,424
1062,Minamidaira,35.655102213731354,139.39245704393187,heavy_rail,1926.0,424
1063,Hirayamajoshi-koen,35.64753085701884,139.3801758650618,heavy_rail,1925.0,424
1064,Naganuma,35.64278144123388,139.36602645065022,heavy_rail,1925.0,424
1065,Kitano,35.64454643387161,139.35418204808445,heavy_rail,1925.0,424
1066,Shinsen-Shinjuku,35.6885888961057,139.69889011171318,heavy_rail,1978.0,531
1067,Hatsudai,35.68168147576877,139.68704803930763,heavy_rail,1978.0,531
1068,Hatagaya,35.67723095966285,139.67680506901655,heavy_rail,1978.0,531
1069,Ofuna,35.35344412544359,139.53135130853752,heavy_rail,1889.0,537
1069,Ofuna,35.35344412544359,139.53135130853752,heavy_rail,1889.0,2366
1069,Ofuna,35.35344412544359,139.53135130853752,heavy_rail,1889.0,3000
1069,Ofuna,35.35344412544359,139.53135130853752,commuter_rail,1889.0,537
1069,Ofuna,35.35344412544359,139.53135130853752,commuter_rail,1889.0,2366
1069,Ofuna,35.35344412544359,139.53135130853752,commuter_rail,1889.0,3000
1070,Yokosuka,35.283986080362524,139.6556845694161,heavy_rail,1889.0,537
1071,Shinagawa,35.62842383275001,139.73988746393894,heavy_rail,1980.0,537
1071,Shinagawa,35.62842383275001,139.73988746393894,heavy_rail,1980.0,3000
1072,東京駅 Tokyoeki (Tokyo Railway Station),35.68015990351586,139.76413015008455,heavy_rail,1980.0,537
1072,東京駅 Tokyoeki (Tokyo Railway Station),35.68015990351586,139.76413015008455,heavy_rail,1980.0,3000
1072,東京駅 Tokyoeki (Tokyo Railway Station),35.68015990351586,139.76413015008455,heavy_rail,1980.0,2448
1073,Nishi-Oi,35.60186166344069,139.72164898243506,heavy_rail,1986.0,537
1073,Nishi-Oi,35.60186166344069,139.72164898243506,heavy_rail,1986.0,2366
1073,Nishi-Oi,35.60186166344069,139.72164898243506,commuter_rail,1986.0,537
1073,Nishi-Oi,35.60186166344069,139.72164898243506,commuter_rail,1986.0,2366
1074,Musashi-Kosugi,35.57447632383811,139.66339819232172,heavy_rail,1980.0,537
1074,Musashi-Kosugi,35.57447632383811,139.66339819232172,heavy_rail,1980.0,2366
1074,Musashi-Kosugi,35.57447632383811,139.66339819232172,heavy_rail,1980.0,3000
1074,Musashi-Kosugi,35.57447632383811,139.66339819232172,commuter_rail,1980.0,537
1074,Musashi-Kosugi,35.57447632383811,139.66339819232172,commuter_rail,1980.0,2366
1074,Musashi-Kosugi,35.57447632383811,139.66339819232172,commuter_rail,1980.0,3000
1075,Shin-Kawasaki,35.55156654825345,139.67169943125924,heavy_rail,1980.0,537
1075,Shin-Kawasaki,35.55156654825345,139.67169943125924,heavy_rail,1980.0,2366
1075,Shin-Kawasaki,35.55156654825345,139.67169943125924,commuter_rail,1980.0,537
1075,Shin-Kawasaki,35.55156654825345,139.67169943125924,commuter_rail,1980.0,2366
1076,Yokohama,35.466494924997576,139.62249478515628,heavy_rail,1980.0,537
1076,Yokohama,35.466494924997576,139.62249478515628,heavy_rail,1980.0,2366
1076,Yokohama,35.466494924997576,139.62249478515628,heavy_rail,1980.0,3000
1076,Yokohama,35.466494924997576,139.62249478515628,commuter_rail,1980.0,537
1076,Yokohama,35.466494924997576,139.62249478515628,commuter_rail,1980.0,2366
1076,Yokohama,35.466494924997576,139.62249478515628,commuter_rail,1980.0,3000
1077,Hodogaya,35.44666986077954,139.5996561804663,heavy_rail,1980.0,537
1077,Hodogaya,35.44666986077954,139.5996561804663,heavy_rail,1980.0,2366
1077,Hodogaya,35.44666986077954,139.5996561804663,commuter_rail,1980.0,537
1077,Hodogaya,35.44666986077954,139.5996561804663,commuter_rail,1980.0,2366
1078,Higashi-Totsuka,35.43033056348429,139.5566889618861,heavy_rail,1980.0,537
1078,Higashi-Totsuka,35.43033056348429,139.5566889618861,heavy_rail,1980.0,2366
1078,Higashi-Totsuka,35.43033056348429,139.5566889618861,commuter_rail,1980.0,537
1078,Higashi-Totsuka,35.43033056348429,139.5566889618861,commuter_rail,1980.0,2366
1079,新橋 Shimbashi,35.66616344086815,139.75887261269088,heavy_rail,1980.0,537
1080,Kita-Kamakura,35.3372832224706,139.54520315427777,heavy_rail,1927.0,537
1081,Kamakura,35.3190214976442,139.55048157355054,heavy_rail,1889.0,537
1082,Zushi,35.2976065022586,139.57852980987593,heavy_rail,1889.0,537
1083,Higashi-Zushi,35.29881159667839,139.60137466729083,heavy_rail,1952.0,537
1084,Taura,35.292831260374925,139.63696924026783,heavy_rail,1904.0,537
1085,Kinugasa,35.25704665058561,139.66124521379754,heavy_rail,1944.0,537
1086,Kurihama,35.23295550467991,139.70108440057152,heavy_rail,1944.0,537
1087,Kawaguchi-Motogo,35.800493004706226,139.73037761521022,heavy_rail,2001.0,494
1088,Minami-Hatogaya,35.81663493961466,139.73619310504728,heavy_rail,2001.0,494
1089,Hatogaya,35.83087967303476,139.7361585293619,heavy_rail,2001.0,494
1090,Araijuku,35.84298468735341,139.73721746922882,heavy_rail,2001.0,494
1091,Tozuka-Angyo,35.85885175727775,139.75377591121628,heavy_rail,2001.0,494
1092,Higashi-Kawaguchi,35.875555524939145,139.74457128002553,heavy_rail,2001.0,494
1093,Urawa-Misono,35.893947202522014,139.72757453343718,heavy_rail,2001.0,494
1094,Akihabara,35.69836032841539,139.7741481765707,heavy_rail,2005.0,495
1095,Asakusa,35.71296230581777,139.79227936120162,heavy_rail,2005.0,495
1096,南千住 Minami-Senju,35.733137500984,139.79912530177916,heavy_rail,2005.0,495
1097,北千住 Kita-Senju,35.74980060453572,139.80517010999512,heavy_rail,2005.0,495
1098,Aoi,35.771735417048106,139.82035478952423,heavy_rail,2005.0,495
1099,Rokucho,35.78485925721924,139.82189396589644,heavy_rail,2005.0,495
1100,Yashio,35.807799990212914,139.84491072454284,heavy_rail,2005.0,495
1101,Misato-chuo,35.82452454003865,139.87837778551153,heavy_rail,2005.0,495
1102,Minami-Nagareyama,35.838737186828666,139.90340475429684,heavy_rail,2005.0,495
1103,Nagareyama-centralpark,35.85453442496164,139.915254192185,heavy_rail,2005.0,495
1104,Nagareyama-Otakanomori,35.87210223617883,139.9253451320663,heavy_rail,2005.0,495
1105,Kashiwanoha-campus,35.893369536522854,139.9525181543019,heavy_rail,2005.0,495
1106,Kashiwa-Tanaka,35.91094042768009,139.9576116109157,heavy_rail,2005.0,495
1107,Moriya,35.95026025338437,139.99238247844403,heavy_rail,2005.0,495
1108,Shiraitodai,35.66647699583734,139.50972214301987,heavy_rail,1917.0,433
1109,Koremasa,35.6562897309979,139.4890472952697,heavy_rail,1922.0,433
1110,Tama,35.67703174669512,139.51718106864456,heavy_rail,1917.0,433
1111,Kyoteijo-mae,35.65616020661497,139.49959983308383,heavy_rail,1922.0,433
1112,Shin-Koganei,35.69595905665817,139.526718426284,heavy_rail,1917.0,433
1113,Musashi-Sakai,35.70189198457494,139.54420647321143,heavy_rail,1917.0,433
1114,Higashi-Murayama,35.759968105727914,139.46569340657285,heavy_rail,1894.0,432
1115,Kokubunji,35.70026903650604,139.48023984258572,heavy_rail,1894.0,432
1115,Kokubunji,35.70026903650604,139.48023984258572,heavy_rail,1894.0,434
1116,Koigakubo,35.71129645313238,139.46405465432974,heavy_rail,1955.0,432
1117,Takanodai,35.72335934135732,139.46115745160228,heavy_rail,1948.0,432
1118,Ogawa,35.737506679099184,139.46352795241984,heavy_rail,1894.0,432
1119,Hagiyama,35.740734168277186,139.47701954601715,heavy_rail,1928.0,434
1120,Musashi-Yamato,35.756059338793534,139.4442308965984,heavy_rail,1930.0,434
1121,Seibu-Yuenchi,35.76617465900078,139.4425728647115,heavy_rail,1961.0,434
1122,Hitotsubashi-gakuen,35.7217857467046,139.4801243929578,heavy_rail,1928.0,434
1123,Ome-kaido,35.73064219751785,139.47655675306618,heavy_rail,1928.0,434
1124,Yasaka,35.745128764514774,139.46735773089563,heavy_rail,1942.0,434
1125,Shin-Sakuradai,35.740924928082606,139.6685009194802,heavy_rail,1983.0,539
1126,小竹向原 Kotake-mukaihara,35.74322147325937,139.6793964537834,heavy_rail,1983.0,539
1127,Toshimaen,35.74212993268212,139.64795977406624,heavy_rail,1927.0,540
1128,Kodaira,35.73698133401591,139.48830198601843,heavy_rail,1928.0,541
1129,Hagiyama,35.74073912660924,139.47711853609178,heavy_rail,1928.0,541
1130,Ogawa,35.73750433904081,139.46338740549385,heavy_rail,1950.0,541
1131,Tamagawa-Josui,35.73172608589775,139.41835517030148,heavy_rail,1950.0,541
1132,Haijima,35.72156290642155,139.34393970565174,heavy_rail,1968.0,541
1133,Seibu-Tachikawa,35.72625386593241,139.3700038770432,heavy_rail,1968.0,541
1134,Musashi-Sunagawa,35.72896395629607,139.39252463764865,heavy_rail,1983.0,541
1135,Higashi-Yamatoshi,35.73319107567292,139.4350837895705,heavy_rail,1950.0,541
1136,Omorikaigan,35.58775802281889,139.7354081464693,heavy_rail,1901.0,423
1137,Kita-Shinagawa,35.6223167943335,139.73928459972245,heavy_rail,1904.0,423
1138,Keikyu-Kawasaki,35.532870798467926,139.70080316826454,heavy_rail,1901.0,423
1139,Kanagawa,35.47097717672386,139.62706069140324,heavy_rail,1905.0,423
1140,Koganecho,35.43987838880831,139.62293899180696,heavy_rail,1930.0,423
1141,Uraga,35.25132646253503,139.71511302217863,heavy_rail,1930.0,423
1142,Yokohama,35.466115335608634,139.62321187456985,heavy_rail,1929.0,423
1143,Shinagawa,35.62832093040193,139.73804511088366,heavy_rail,1925.0,423
1143,Shinagawa,35.62832093040193,139.73804511088366,heavy_rail,1925.0,427
1144,Shimbamba,35.616479212141485,139.74149498081778,heavy_rail,1904.0,423
1145,Aomono-yokocho,35.608850887471775,139.74308396539482,heavy_rail,1904.0,423
1146,Samezu,35.60501482795259,139.74229608316654,heavy_rail,1904.0,423
1147,Tachiaigawa,35.59866840089184,139.73893955019958,heavy_rail,1904.0,423
1148,Heiwajima,35.578715680906384,139.73496753177932,heavy_rail,1901.0,423
1149,Omorimachi,35.57249705501415,139.7320314311483,heavy_rail,1952.0,423
1150,Umeyashiki,35.566975645405634,139.72836323627325,heavy_rail,1901.0,423
1151,Keikyu-Kamata,35.5610252226911,139.7238013839945,heavy_rail,1901.0,423
1152,Zoshiki,35.5500481400463,139.7151504738793,heavy_rail,1901.0,423
1153,Rokugodote,35.54065270310633,139.7076407913762,heavy_rail,1906.0,423
1154,Hatchonawate,35.52300966266246,139.69140235695045,heavy_rail,1916.0,423
1155,Tsurumi-ichiba,35.51785277807498,139.68666745732963,heavy_rail,1905.0,423
1156,Keikyu-Tsurumi,35.50732566826933,139.67789324054803,heavy_rail,1905.0,423
